{"cuisine": "Diners, Middle Eastern, Breakfast & Brunch", "star_rating": 4.0, "transactions": "delivery", "restaurant_id": "UZJ361wkdyZfxWax3oc3rg", "longitude": -71.1017365, "num_reviews": 489, "restaurant_name": "Brookline Lunch", "latitude": 42.3637641, "is_closed": 0, "zip_code": "02139"}
{"cuisine": "Juice Bars & Smoothies, Cafes", "star_rating": 4.0, "transactions": "pickup, delivery", "restaurant_id": "2O_KVXfW7CtYsmSHxA4Hew", "longitude": -71.115817, "num_reviews": 65, "restaurant_name": "Juicygreens", "latitude": 42.307693, "is_closed": 0, "zip_code": "02130"}
{"cuisine": "Seafood", "star_rating": 3.5, "transactions": "delivery", "restaurant_id": "Rr7rhulFCpGvO341g-EWVg", "longitude": -71.077868, "num_reviews": 569, "restaurant_name": "Legal Sea Foods", "latitude": 42.347085, "is_closed": 0, "zip_code": "02116"}
{"cuisine": "Pizza, Pasta Shops, American (New)", "star_rating": 3.0, "transactions": "delivery, pickup", "restaurant_id": "6K1E7cCy6NZEAnNI84T5hw", "longitude": -71.0630602017045, "num_reviews": 56, "restaurant_name": "Rodey Pizzeria and Pasta", "latitude": 42.3642736172989, "is_closed": 0, "zip_code": "02114"}
{"cuisine": "Pizza, Italian", "star_rating": 4.0, "transactions": "delivery", "restaurant_id": "AJEu9qBF1oLY6mqlek1gYg", "longitude": -71.0984469096914, "num_reviews": 148, "restaurant_name": "Regina Pizzeria", "latitude": 42.3442548214725, "is_closed": 0, "zip_code": "02215"}
{"cuisine": "Burgers, Breakfast & Brunch", "star_rating": 4.5, "transactions": "delivery, pickup", "restaurant_id": "KdfxJFeS6-TOLyCMw9tsXg", "longitude": -71.07584, "num_reviews": 9, "restaurant_name": "Smashburger", "latitude": 42.350795, "is_closed": 0, "zip_code": "02116"}
{"cuisine": "Breakfast & Brunch, Delis, American (Traditional)", "star_rating": 4.0, "transactions": "delivery", "restaurant_id": "gxNxT-sk72z9ja6QNYnEHw", "longitude": -71.123682211138, "num_reviews": 1575, "restaurant_name": "Zaftigs Delicatessen - Brookline", "latitude": 42.343860473774, "is_closed": 0, "zip_code": "02446"}
{"cuisine": "Desserts, Gift Shops, Chocolatiers & Shops", "star_rating": 4.5, "transactions": null, "restaurant_id": "lG-1oVC1JGmjwXLqbD6j1g", "longitude": -71.0772621631622, "num_reviews": 38, "restaurant_name": "Gourmet Boutique", "latitude": 42.3486807131878, "is_closed": 0, "zip_code": "02116"}
{"cuisine": "Latin American", "star_rating": 4.0, "transactions": "pickup, delivery", "restaurant_id": "EEAoaQoxrE-BtgrQ2IryBg", "longitude": -71.1002579, "num_reviews": 9, "restaurant_name": "D&D Restaurant", "latitude": 42.3141708, "is_closed": 0, "zip_code": "02130"}
{"cuisine": "Cocktail Bars, American (New)", "star_rating": 3.5, "transactions": null, "restaurant_id": "5aB31ecKPzcK1kzW0zCzzQ", "longitude": -71.0901213, "num_reviews": 3, "restaurant_name": "The Bar By the Elevator", "latitude": 42.3673039, "is_closed": 0, "zip_code": "02139"}
{"cuisine": "Parks", "star_rating": 3.5, "transactions": null, "restaurant_id": "aycDjq5Xe-ANVBEP5yYA3g", "longitude": -71.1509799957275, "num_reviews": 2, "restaurant_name": "Cassidy Playground", "latitude": 42.3360199481249, "is_closed": 0, "zip_code": "02135"}
{"cuisine": "Turkish, Mediterranean, Kebab", "star_rating": 4.0, "transactions": "delivery, pickup", "restaurant_id": "x80bi4pYRSD5LxsY86JNsA", "longitude": -71.0551782468559, "num_reviews": 217, "restaurant_name": "Boston Kebab House", "latitude": 42.3578241623944, "is_closed": 0, "zip_code": "02109"}
{"cuisine": "Coffee & Tea", "star_rating": 3.0, "transactions": "delivery", "restaurant_id": "mvEzzcqpiK5w5F80FEkYHg", "longitude": -71.069345, "num_reviews": 50, "restaurant_name": "Starbucks", "latitude": 42.356342, "is_closed": 0, "zip_code": "02108"}
{"cuisine": "Ice Cream & Frozen Yogurt", "star_rating": 4.0, "transactions": "delivery", "restaurant_id": "EtbnPmRq3eVUMH-Wig6Xgw", "longitude": -71.1674289748848, "num_reviews": 177, "restaurant_name": "White Mountain Creamery", "latitude": 42.3400478836328, "is_closed": 0, "zip_code": "02467"}
{"cuisine": "Diners, American (Traditional)", "star_rating": 4.0, "transactions": "delivery", "restaurant_id": "uOvBKXwrNag61_dJW9YXcA", "longitude": -71.0868911743164, "num_reviews": 102, "restaurant_name": "Buddy's Diner", "latitude": 42.38134765625, "is_closed": 0, "zip_code": "02143"}
{"cuisine": "Greek, Mediterranean", "star_rating": 2.5, "transactions": "pickup, delivery", "restaurant_id": "IJQdAZSEFPw1uonlaz77QQ", "longitude": -71.055331, "num_reviews": 71, "restaurant_name": "Steve's Greek Cuisine", "latitude": 42.360232, "is_closed": 0, "zip_code": "02109"}
{"cuisine": "Delis, Breakfast & Brunch, Sandwiches", "star_rating": 4.5, "transactions": "pickup, delivery", "restaurant_id": "-WG2sv6ApNh1fa7ot-QAEA", "longitude": -71.0592011686825, "num_reviews": 173, "restaurant_name": "Archie's New York Deli", "latitude": 42.3550721034927, "is_closed": 0, "zip_code": "02110"}
{"cuisine": "Pizza, Ice Cream & Frozen Yogurt", "star_rating": 3.5, "transactions": "pickup, delivery", "restaurant_id": "d_SesaaSLwur2BYcMfb6Fg", "longitude": -71.0660403, "num_reviews": 95, "restaurant_name": "Boston Pizza Grill", "latitude": 42.3159516, "is_closed": 0, "zip_code": "02125"}
{"cuisine": "Vietnamese", "star_rating": 4.0, "transactions": "delivery", "restaurant_id": "vsS0M6qbVFaCFKYZA2Iu2g", "longitude": -71.0390451, "num_reviews": 170, "restaurant_name": "Saigon Hut", "latitude": 42.377266, "is_closed": 0, "zip_code": "02128"}
{"cuisine": "Grocery, Pasta Shops, Sandwiches", "star_rating": 4.5, "transactions": "delivery", "restaurant_id": "EITnn5A8beuzn7TCfUMZAQ", "longitude": -71.05495, "num_reviews": 102, "restaurant_name": "Bricco Salumeria and Pasta Shoppe", "latitude": 42.36292, "is_closed": 0, "zip_code": "02113"}
{"cuisine": "Vietnamese, Food Trucks, Asian Fusion", "star_rating": 4.0, "transactions": null, "restaurant_id": "JyR-FFTeNW_QWCeeu8LJyg", "longitude": -71.051518, "num_reviews": 63, "restaurant_name": "Bon Me", "latitude": 42.356684, "is_closed": 0, "zip_code": "02110"}
{"cuisine": "Mexican", "star_rating": 2.0, "transactions": "delivery", "restaurant_id": "sp71tuiYavaGIfb5tGEQYA", "longitude": -71.00859, "num_reviews": 5, "restaurant_name": "Tequilas Mexican Bar & Grill", "latitude": 42.387165, "is_closed": 0, "zip_code": "02128"}
{"cuisine": "Burgers, Fast Food, Coffee & Tea", "star_rating": 1.5, "transactions": "delivery", "restaurant_id": "r1mx6M3JLY3zusCeGkpmTw", "longitude": -71.0822282731533, "num_reviews": 23, "restaurant_name": "McDonald's", "latitude": 42.3203520682074, "is_closed": 0, "zip_code": "02119"}
{"cuisine": "Ice Cream & Frozen Yogurt", "star_rating": 2.5, "transactions": "pickup, delivery", "restaurant_id": "U3aHWk-pQg23rmAu7hSGhQ", "longitude": -71.04853, "num_reviews": 14, "restaurant_name": "JP Licks", "latitude": 42.33707, "is_closed": 0, "zip_code": "02127"}
{"cuisine": "Japanese, Sushi Bars, Asian Fusion", "star_rating": 4.0, "transactions": "delivery, restaurant_reservation, pickup", "restaurant_id": "AHgRWXw3IMe5WHktt3f6Xg", "longitude": -71.0559069509264, "num_reviews": 269, "restaurant_name": "Crudo", "latitude": 42.3636849645937, "is_closed": 0, "zip_code": "02113"}
{"cuisine": "Desserts, Chocolatiers & Shops, Coffee & Tea", "star_rating": 4.5, "transactions": "delivery", "restaurant_id": "noZDdwtajAkMCDVFPqV19w", "longitude": -71.0754537, "num_reviews": 442, "restaurant_name": "L.A. Burdick Handmade Chocolates", "latitude": 42.3511188, "is_closed": 0, "zip_code": "02116"}
{"cuisine": "Middle Eastern, Falafel", "star_rating": 4.0, "transactions": "pickup, delivery", "restaurant_id": "0OXysDMAdMzDj2iW0zacKw", "longitude": -71.0578912496567, "num_reviews": 234, "restaurant_name": "Falafel King", "latitude": 42.3578462497398, "is_closed": 0, "zip_code": "02108"}
{"cuisine": "Bakeries, Cooking Classes, Macarons", "star_rating": 4.0, "transactions": null, "restaurant_id": "4dB-7_wSXZcqUnJG0eke0w", "longitude": -71.0569411, "num_reviews": 76, "restaurant_name": "Finesse Pastries", "latitude": 42.3620005, "is_closed": 0, "zip_code": "02108"}
{"cuisine": "Ice Cream & Frozen Yogurt", "star_rating": 4.0, "transactions": null, "restaurant_id": "2LcXz78PoN0-1RXT0pJzrw", "longitude": -71.074242, "num_reviews": 1, "restaurant_name": "Little G Ice Cream", "latitude": 42.313084, "is_closed": 0, "zip_code": "02125"}
{"cuisine": "Sandwiches", "star_rating": 4.5, "transactions": null, "restaurant_id": "n8UR9Dbh72h8wNe3Hr4n4w", "longitude": -71.1089505, "num_reviews": 3, "restaurant_name": "Charles River Bread", "latitude": 42.3509182, "is_closed": 0, "zip_code": "02215"}
{"cuisine": "Korean, Japanese, Asian Fusion", "star_rating": 3.5, "transactions": "delivery, pickup", "restaurant_id": "hlOpjI_5tcbMNBQWEANvxg", "longitude": -71.131518086948, "num_reviews": 208, "restaurant_name": "Hanmaru", "latitude": 42.3514386527001, "is_closed": 0, "zip_code": "02134"}
{"cuisine": "Barbeque, Food Trucks", "star_rating": 4.0, "transactions": null, "restaurant_id": "MrZlHBnT7RPjtTDwaufbBg", "longitude": -71.06217, "num_reviews": 43, "restaurant_name": "M & M BBQ", "latitude": 42.32209, "is_closed": 0, "zip_code": "02125"}
{"cuisine": "Mexican, Fast Food", "star_rating": 3.0, "transactions": "delivery", "restaurant_id": "rdSV94pef25c-XoYZhTldw", "longitude": -71.1146642025559, "num_reviews": 65, "restaurant_name": "Chipotle Mexican Grill", "latitude": 42.3506650007039, "is_closed": 0, "zip_code": "02215"}
{"cuisine": "Mediterranean", "star_rating": 4.0, "transactions": "delivery, pickup", "restaurant_id": "Uo6zk1gFwaw21YZ2gqlZCw", "longitude": -71.101, "num_reviews": 154, "restaurant_name": "Moona", "latitude": 42.37421, "is_closed": 0, "zip_code": "02139"}
{"cuisine": "Bubble Tea", "star_rating": 4.0, "transactions": "delivery, pickup", "restaurant_id": "zGg4yOxfGSzpEDQLe178Fg", "longitude": -71.105729, "num_reviews": 26, "restaurant_name": "Shinmio Tea", "latitude": 42.346821, "is_closed": 0, "zip_code": "02215"}
{"cuisine": "Mediterranean, Cocktail Bars", "star_rating": 5.0, "transactions": null, "restaurant_id": "5oKcsAsYqWOtNLEwMnoWuw", "longitude": -71.0545740276575, "num_reviews": 6, "restaurant_name": "Servia", "latitude": 42.3593600005624, "is_closed": 0, "zip_code": "02109"}
{"cuisine": "Bubble Tea, Coffee & Tea, Juice Bars & Smoothies", "star_rating": 3.5, "transactions": "pickup, delivery", "restaurant_id": "7uWIBEisXtqoFMhwNZsgyA", "longitude": -71.0606540184368, "num_reviews": 173, "restaurant_name": "Kung Fu Tea", "latitude": 42.3505344448602, "is_closed": 0, "zip_code": "02111"}
{"cuisine": "Italian, Pizza", "star_rating": 4.5, "transactions": "pickup, delivery", "restaurant_id": "pksM6e_ajgLkX-mSCYxSyA", "longitude": -71.05314, "num_reviews": 187, "restaurant_name": "Rinas Pizzeria & Cafe", "latitude": 42.36488, "is_closed": 0, "zip_code": "02113"}
{"cuisine": "Food Trucks, Falafel", "star_rating": 2.5, "transactions": null, "restaurant_id": "lKyxnQuOqbalVDfWX_Sc1g", "longitude": -71.0627088323236, "num_reviews": 20, "restaurant_name": "Mediterranean Home Cooking", "latitude": 42.3523496155031, "is_closed": 0, "zip_code": "02111"}
{"cuisine": "Sushi Bars, Asian Fusion, Barbeque", "star_rating": 3.5, "transactions": "delivery", "restaurant_id": "ODhzNz_TXJw3dHXuC12vlA", "longitude": -71.040106, "num_reviews": 5, "restaurant_name": "Mexicali Sushi Bar", "latitude": 42.36893, "is_closed": 0, "zip_code": "02128"}
{"cuisine": "Sandwiches", "star_rating": 3.0, "transactions": null, "restaurant_id": "IL1tDdW8IVxoNNnvfAnGuA", "longitude": -71.048003, "num_reviews": 6, "restaurant_name": "It's A Wrap", "latitude": 42.315821, "is_closed": 0, "zip_code": "02125"}
{"cuisine": "Donuts, Coffee & Tea", "star_rating": 5.0, "transactions": null, "restaurant_id": "yIEBxjBbr8w_u2oTV4oANQ", "longitude": -71.065635, "num_reviews": 1, "restaurant_name": "Blackbird Doughnuts", "latitude": 42.361394, "is_closed": 0, "zip_code": "02114"}
{"cuisine": "Coffee & Tea, Bakeries, Sandwiches", "star_rating": 3.5, "transactions": "delivery, pickup", "restaurant_id": "ecnQiDPdVCW_EqIjq4s-ig", "longitude": -71.0621368, "num_reviews": 14, "restaurant_name": "Second Cup Coffee", "latitude": 42.3648331, "is_closed": 0, "zip_code": "02114"}
{"cuisine": "Sandwiches", "star_rating": 2.5, "transactions": "pickup, delivery", "restaurant_id": "aDZFoFGgT1woBhD-zkIoLA", "longitude": -71.119633, "num_reviews": 27, "restaurant_name": "Subway", "latitude": 42.372494, "is_closed": 0, "zip_code": "02138"}
{"cuisine": "Himalayan/Nepalese, Indian", "star_rating": 4.0, "transactions": "delivery, pickup", "restaurant_id": "fTSKD2e4FTyUbHCl93t1ow", "longitude": -71.1018218994141, "num_reviews": 206, "restaurant_name": "Momo N Curry", "latitude": 42.3821182250977, "is_closed": 0, "zip_code": "02143"}
{"cuisine": "Historical Tours, Amusement Parks, Boat Tours", "star_rating": 5.0, "transactions": null, "restaurant_id": "_SgL1esi9LgSmfi3qHJCOg", "longitude": -71.05001, "num_reviews": 1, "restaurant_name": "The Pirate Ship Formidable", "latitude": 42.357059, "is_closed": 0, "zip_code": "02110"}
{"cuisine": "Coffee & Tea", "star_rating": 4.0, "transactions": "delivery", "restaurant_id": "FchSThZC_-4vvjgWpA8wvg", "longitude": -71.11686, "num_reviews": 105, "restaurant_name": "Blue Bottle Coffee", "latitude": 42.37147, "is_closed": 0, "zip_code": "02138"}
{"cuisine": "Fast Food", "star_rating": 2.0, "transactions": null, "restaurant_id": "uU7t02FRE7mem-OOKWospg", "longitude": -71.088842, "num_reviews": 2, "restaurant_name": "Outtakes", "latitude": 42.341134, "is_closed": 0, "zip_code": "02115"}
{"cuisine": "Grocery, Sandwiches", "star_rating": 4.5, "transactions": "delivery", "restaurant_id": "tAS8f5dwti2dGlzQN4iA5A", "longitude": -71.1594869463572, "num_reviews": 76, "restaurant_name": "Kiki's Kwik-Mart", "latitude": 42.3528531601241, "is_closed": 0, "zip_code": "02135"}
{"cuisine": "Mexican", "star_rating": 3.0, "transactions": "delivery", "restaurant_id": "7TL1IgRaLZqrw1nGECdTBA", "longitude": -71.0222778, "num_reviews": 9, "restaurant_name": "Las Carnitas De Montecristo", "latitude": 42.3999367, "is_closed": 0, "zip_code": "02150"}
{"cuisine": "Bubble Tea, Juice Bars & Smoothies, Coffee & Tea", "star_rating": 3.0, "transactions": "pickup, delivery", "restaurant_id": "V7eaJpIk4o0J8oSaUToKKw", "longitude": -71.12537, "num_reviews": 39, "restaurant_name": "Kung Fu Tea", "latitude": 42.35253, "is_closed": 0, "zip_code": "02134"}
{"cuisine": "Bakeries", "star_rating": 4.5, "transactions": "delivery", "restaurant_id": "ouDKcBibaWfyORL90EliDQ", "longitude": -71.1235177, "num_reviews": 127, "restaurant_name": "When Pigs Fly", "latitude": 42.3418133, "is_closed": 0, "zip_code": "02446"}
{"cuisine": "Sandwiches, Cafes", "star_rating": 2.5, "transactions": "delivery", "restaurant_id": "d0Q5-r0kzSzouTOfmWqMJg", "longitude": -71.05453, "num_reviews": 12, "restaurant_name": "Rebecca's Cafe", "latitude": 42.35226, "is_closed": 0, "zip_code": "02111"}
{"cuisine": "Donuts, Coffee & Tea", "star_rating": 2.0, "transactions": "delivery", "restaurant_id": "yD-5sG4dkoI3uGbAH8TnwQ", "longitude": -71.1038589477539, "num_reviews": 17, "restaurant_name": "Dunkin'", "latitude": 42.3340606689453, "is_closed": 0, "zip_code": "02120"}
{"cuisine": "Vietnamese", "star_rating": 3.5, "transactions": "delivery, pickup", "restaurant_id": "V7z-P1aqxkHTcKAsWA603A", "longitude": -71.11987, "num_reviews": 673, "restaurant_name": "Le's Restaurant", "latitude": 42.37274, "is_closed": 0, "zip_code": "02138"}
{"cuisine": "Caribbean", "star_rating": 5.0, "transactions": null, "restaurant_id": "qT-eknMqUSCXqGNgjkaNCA", "longitude": -71.0861831903458, "num_reviews": 1, "restaurant_name": "Hummingbird Grill", "latitude": 42.2997833043337, "is_closed": 0, "zip_code": "02121"}
{"cuisine": "Breakfast & Brunch, Cafes", "star_rating": 3.0, "transactions": "pickup, delivery", "restaurant_id": "P5Qt46I_jIDK8rXQATr-4w", "longitude": -71.0575495526924, "num_reviews": 80, "restaurant_name": "Sebastians Caf\u00e9 & Catering", "latitude": 42.3536330284222, "is_closed": 0, "zip_code": "02110"}
{"cuisine": "Coffee & Tea, Donuts", "star_rating": 2.0, "transactions": "delivery", "restaurant_id": "GUOOAG1ryiTTRTl7WOQ-WQ", "longitude": -71.0561243, "num_reviews": 7, "restaurant_name": "Dunkin'", "latitude": 42.3422349, "is_closed": 0, "zip_code": "02127"}
{"cuisine": "Ramen", "star_rating": 3.5, "transactions": "delivery, pickup", "restaurant_id": "XDv29FffNd2dWnDOtZP-wg", "longitude": -71.11839, "num_reviews": 632, "restaurant_name": "Sapporo Ramen", "latitude": 42.38729, "is_closed": 0, "zip_code": "02140"}
{"cuisine": "American (New), Breakfast & Brunch, Burgers", "star_rating": 3.0, "transactions": "delivery", "restaurant_id": "QvCYvbMNkRTe4UqVwmyb3w", "longitude": -71.11197, "num_reviews": 588, "restaurant_name": "Canary Square", "latitude": 42.31977, "is_closed": 0, "zip_code": "02130"}
{"cuisine": "American (New), Seafood, Cocktail Bars", "star_rating": 4.0, "transactions": "delivery", "restaurant_id": "b8_a5LuSt0Gcy-TZIvDl3g", "longitude": -71.07263, "num_reviews": 97, "restaurant_name": "Black Lamb", "latitude": 42.34369, "is_closed": 0, "zip_code": "02118"}
{"cuisine": "Street Vendors, Food Trucks", "star_rating": 4.0, "transactions": null, "restaurant_id": "4bOMQup-yl5ILkygbxhtyA", "longitude": -71.0921108722687, "num_reviews": 12, "restaurant_name": "Chang Foods C F Luncheon Wagon", "latitude": 42.3628724556849, "is_closed": 0, "zip_code": ""}
{"cuisine": "Fast Food, Burgers, Coffee & Tea", "star_rating": 2.0, "transactions": "delivery", "restaurant_id": "boZwtUjcUnUFlvpTcKolNg", "longitude": -71.1677764263368, "num_reviews": 47, "restaurant_name": "McDonald's", "latitude": 42.2644513871125, "is_closed": 0, "zip_code": "02132"}
{"cuisine": "Bars, American (New), Seafood", "star_rating": 4.0, "transactions": "delivery, pickup", "restaurant_id": "THeSIOFvgOMoq7_iXQxFCw", "longitude": -71.1442271, "num_reviews": 129, "restaurant_name": "Rail Stop Restaurant & Bar", "latitude": 42.3569501, "is_closed": 0, "zip_code": "02135"}
{"cuisine": "Latin American, Mexican", "star_rating": 4.0, "transactions": "delivery", "restaurant_id": "euwV5K1uvxL3O5zMIcLS5w", "longitude": -71.13654, "num_reviews": 104, "restaurant_name": "Taqueria El Carrizal", "latitude": 42.35323, "is_closed": 0, "zip_code": "02134"}
{"cuisine": "Cocktail Bars, Pubs", "star_rating": 3.5, "transactions": "pickup, delivery", "restaurant_id": "0_Gasj4t2pH5mNvYyBDPaQ", "longitude": -71.123507, "num_reviews": 109, "restaurant_name": "Hamilton Restaurant & Bar", "latitude": 42.341899, "is_closed": 0, "zip_code": "02446"}
{"cuisine": "Pizza, Italian", "star_rating": 4.0, "transactions": "pickup, delivery", "restaurant_id": "g2ynpekYnU7mkoPQKG4bFg", "longitude": -71.0565643310547, "num_reviews": 60, "restaurant_name": "Andrew Square House of Pizza", "latitude": 42.3300399780273, "is_closed": 0, "zip_code": "02127"}
{"cuisine": "Pizza", "star_rating": 2.5, "transactions": "delivery, pickup", "restaurant_id": "J8q0tmKrohIw6We0shrLig", "longitude": -71.0054245, "num_reviews": 35, "restaurant_name": "Woody's Pizza & Liquors", "latitude": 42.3859444, "is_closed": 0, "zip_code": "02128"}
{"cuisine": "Steakhouses, Brazilian, Barbeque", "star_rating": 3.0, "transactions": "pickup, delivery", "restaurant_id": "TfSZgUu1Uxwcve7q1j5fLQ", "longitude": -71.09603, "num_reviews": 390, "restaurant_name": "Midwest Grill Brazilian BBQ", "latitude": 42.3728530184518, "is_closed": 0, "zip_code": "02139"}
{"cuisine": "Tacos", "star_rating": 4.5, "transactions": "pickup, delivery", "restaurant_id": "qenuGP8CsQpFvQKIra4IJw", "longitude": -71.06491, "num_reviews": 4, "restaurant_name": "El Jefe's Taqueria", "latitude": 42.35223, "is_closed": 0, "zip_code": "02116"}
{"cuisine": "Chinese, Taiwanese, Noodles", "star_rating": 3.0, "transactions": "pickup, delivery", "restaurant_id": "PWlm_xOi2fkDlKM17LcRUQ", "longitude": -71.132065, "num_reviews": 236, "restaurant_name": "Dumpling Kingdom", "latitude": 42.3520284, "is_closed": 0, "zip_code": "02134"}
{"cuisine": "Dive Bars, Pubs", "star_rating": 4.5, "transactions": "delivery, pickup", "restaurant_id": "tCPxYdZVbsDooH3DQsNLqQ", "longitude": -71.05837, "num_reviews": 128, "restaurant_name": "The Corner Pub", "latitude": 42.35076, "is_closed": 0, "zip_code": "02111"}
{"cuisine": "Beer Bar, American (Traditional)", "star_rating": 4.0, "transactions": "delivery", "restaurant_id": "imBg1-qcZ9Wwvw8KsQBcUg", "longitude": -71.05419, "num_reviews": 109, "restaurant_name": "The Ginger Man", "latitude": 42.35948, "is_closed": 0, "zip_code": "02109"}
{"cuisine": "Sandwiches", "star_rating": 3.5, "transactions": null, "restaurant_id": "we_5XICxAxrkx4RPdJQsIg", "longitude": -71.05453, "num_reviews": 7, "restaurant_name": "The Atrium Cafe", "latitude": 42.35226, "is_closed": 0, "zip_code": "02111"}
{"cuisine": "American (New), Bars, Breakfast & Brunch", "star_rating": 3.0, "transactions": null, "restaurant_id": "9mClygXHgT32dBxwBvGLww", "longitude": -71.065252, "num_reviews": 12, "restaurant_name": "The Gallery", "latitude": 42.35095, "is_closed": 0, "zip_code": "02116"}
{"cuisine": "Parks", "star_rating": 4.5, "transactions": null, "restaurant_id": "O-ZX_zrOtwQEN-dn2f0zGA", "longitude": -71.0670241713524, "num_reviews": 7, "restaurant_name": "Dorchester Park", "latitude": 42.2758358716965, "is_closed": 0, "zip_code": "02124"}
{"cuisine": "Greek, Mediterranean, American (Traditional)", "star_rating": 4.0, "transactions": "delivery", "restaurant_id": "WFMlEipNxrPYArq4VSaQaw", "longitude": -71.0809699, "num_reviews": 236, "restaurant_name": "Desfina Restaurant", "latitude": 42.36753, "is_closed": 0, "zip_code": "02141"}
{"cuisine": "Pubs", "star_rating": 3.5, "transactions": null, "restaurant_id": "vJsZxZaef_7FU6b6vOJZHA", "longitude": -71.0412015, "num_reviews": 16, "restaurant_name": "Shamrock Pub", "latitude": 42.3312718, "is_closed": 0, "zip_code": "02127"}
{"cuisine": "Sushi Bars, Asian Fusion, Japanese", "star_rating": 3.5, "transactions": "pickup, delivery", "restaurant_id": "SUz38qzIzB5vg9n-SPXuYw", "longitude": -71.1209277472262, "num_reviews": 253, "restaurant_name": "Rainbow Sushi & Asian Cuisine", "latitude": 42.339359144586, "is_closed": 0, "zip_code": "02446"}
{"cuisine": "Latin American, Dominican", "star_rating": 3.5, "transactions": "delivery", "restaurant_id": "AbijqIXmFadzJa5rPtyp6A", "longitude": -71.1374, "num_reviews": 17, "restaurant_name": "Bani Restaurant", "latitude": 42.27829, "is_closed": 0, "zip_code": "02131"}
{"cuisine": "Landmarks & Historical Buildings", "star_rating": 3.5, "transactions": null, "restaurant_id": "UGs6J02mK_DTxDPfrJoviw", "longitude": -71.12017, "num_reviews": 160, "restaurant_name": "Harvard Square", "latitude": 42.37325, "is_closed": 0, "zip_code": "02138"}
{"cuisine": "Restaurants", "star_rating": 3.0, "transactions": null, "restaurant_id": "v_dyU-djAlTCtuQi56Dzog", "longitude": -71.0894089, "num_reviews": 1, "restaurant_name": "Fanfan Bakery West Indies Restaurant", "latitude": 42.2834015, "is_closed": 0, "zip_code": "02126"}
{"cuisine": "Cafes, Coffee & Tea, Bakeries", "star_rating": 5.0, "transactions": null, "restaurant_id": "2ioWxeyVVz9V4mTaMoOd1A", "longitude": -71.108879, "num_reviews": 8, "restaurant_name": "Third Cliff Bakery", "latitude": 42.305556, "is_closed": 0, "zip_code": "02130"}
{"cuisine": "Pubs, American (Traditional), Pizza", "star_rating": 3.5, "transactions": "pickup, delivery", "restaurant_id": "Tyf0P9SMnc9Q7jXF6JO3cw", "longitude": -71.0357013997035, "num_reviews": 172, "restaurant_name": "Kelley Square Pub", "latitude": 42.3762017229843, "is_closed": 0, "zip_code": "02128"}
{"cuisine": "Landmarks & Historical Buildings", "star_rating": 4.5, "transactions": null, "restaurant_id": "FSYFr_LJzRlkqZZ-pl9mEQ", "longitude": -71.05451, "num_reviews": 118, "restaurant_name": "Old North Church & Historic Site", "latitude": 42.36649, "is_closed": 0, "zip_code": "02113"}
{"cuisine": "Ethiopian, Vegetarian", "star_rating": 4.5, "transactions": "delivery, pickup", "restaurant_id": "rHkr_jxQS-KJZ9M00i6JPA", "longitude": -71.1090535, "num_reviews": 51, "restaurant_name": "Ethiopian Cafe", "latitude": 42.3222265, "is_closed": 0, "zip_code": "02130"}
{"cuisine": "Vegan, Vegetarian", "star_rating": 4.5, "transactions": null, "restaurant_id": "SF_bUTMRtlu1vL8QXpLZuQ", "longitude": -71.118492, "num_reviews": 27, "restaurant_name": "Whole Heart Provisions", "latitude": 42.37301, "is_closed": 0, "zip_code": "02138"}
{"cuisine": "Pizza, American (Traditional)", "star_rating": 3.5, "transactions": "pickup, delivery", "restaurant_id": "iSxMx6bokjSx1c0MVWDXbQ", "longitude": -71.07106, "num_reviews": 61, "restaurant_name": "New Market Pizza & Grill", "latitude": 42.33211, "is_closed": 0, "zip_code": "02118"}
{"cuisine": "Falafel, Vegetarian, Middle Eastern", "star_rating": 4.0, "transactions": "delivery, pickup", "restaurant_id": "EQAAhPw7ytb6QZHqfx-b6Q", "longitude": -71.1309336, "num_reviews": 14, "restaurant_name": "Falafellas", "latitude": 42.350809, "is_closed": 0, "zip_code": "02134"}
{"cuisine": "Mexican, Fast Food, American (New)", "star_rating": 4.0, "transactions": "pickup, delivery", "restaurant_id": "kRRz2goOi0tzd9TTqlifQg", "longitude": -71.0670942440629, "num_reviews": 217, "restaurant_name": "Boloco", "latitude": 42.3522386124831, "is_closed": 0, "zip_code": "02116"}
{"cuisine": "Salvadoran, Mexican", "star_rating": 4.0, "transactions": "delivery", "restaurant_id": "wetC20lL21yQeBKicut2Tg", "longitude": -71.0292334, "num_reviews": 19, "restaurant_name": "Cabana Grill", "latitude": 42.3783605, "is_closed": 0, "zip_code": "02128"}
{"cuisine": "Pizza", "star_rating": 4.0, "transactions": "delivery, pickup", "restaurant_id": "FPQ3Du_MLuRFtfFn-IaqAQ", "longitude": -71.0383205, "num_reviews": 65, "restaurant_name": "Olympic House of Pizza", "latitude": 42.3354605, "is_closed": 0, "zip_code": "02127"}
{"cuisine": "Desserts, Ice Cream & Frozen Yogurt, Custom Cakes", "star_rating": 4.0, "transactions": "delivery", "restaurant_id": "fvuXHSkSE00DglB2-qHt5w", "longitude": -71.11985, "num_reviews": 297, "restaurant_name": "Honeycomb Creamery", "latitude": 42.3832, "is_closed": 0, "zip_code": "02138"}
{"cuisine": "Steakhouses, Wine Bars, Breakfast & Brunch", "star_rating": 4.0, "transactions": "delivery", "restaurant_id": "fEKzWC1sbfZSElp46FoNag", "longitude": -71.0619811489821, "num_reviews": 890, "restaurant_name": "Mooo Restaurant", "latitude": 42.3583014944831, "is_closed": 0, "zip_code": "02108"}
{"cuisine": "Italian, Pizza, Sandwiches", "star_rating": 3.5, "transactions": "delivery", "restaurant_id": "jqcxn2QZjYhCPXiXOrM6Ew", "longitude": -71.153831, "num_reviews": 95, "restaurant_name": "Comella's", "latitude": 42.286285, "is_closed": 0, "zip_code": "02132"}
{"cuisine": "Coffee & Tea", "star_rating": 3.0, "transactions": null, "restaurant_id": "_-NeBiPBmm8nf-Eq7_o0_A", "longitude": -71.08593, "num_reviews": 31, "restaurant_name": "Starbucks", "latitude": 42.363041, "is_closed": 0, "zip_code": "02142"}
{"cuisine": "Burgers, Ice Cream & Frozen Yogurt, American (Traditional)", "star_rating": 3.0, "transactions": "delivery", "restaurant_id": "mLd8J8zdfqOVSiARDwtYsw", "longitude": -71.169679, "num_reviews": 571, "restaurant_name": "Shake Shack", "latitude": 42.32261, "is_closed": 0, "zip_code": "02467"}
{"cuisine": "Asian Fusion", "star_rating": 4.0, "transactions": "delivery", "restaurant_id": "gYMzNlDMnwJj5vsEX_NosA", "longitude": -71.1062359253643, "num_reviews": 423, "restaurant_name": "Mei Mei Restaurant", "latitude": 42.3474142084205, "is_closed": 0, "zip_code": "02215"}
{"cuisine": "Pizza", "star_rating": 3.0, "transactions": "pickup, delivery", "restaurant_id": "g7TystV760QG2RXcvf-8Uw", "longitude": -71.16645, "num_reviews": 74, "restaurant_name": "Crazy Dough's Pizza", "latitude": 42.34027, "is_closed": 0, "zip_code": "02135"}
{"cuisine": "Parks", "star_rating": 4.0, "transactions": null, "restaurant_id": "02hFRM09ZOttkAINEq3BYw", "longitude": -71.0618362426758, "num_reviews": 2, "restaurant_name": "City Square Park", "latitude": 42.3721618652344, "is_closed": 0, "zip_code": "02129"}
{"cuisine": "Donuts, Coffee & Tea", "star_rating": 3.5, "transactions": "delivery", "restaurant_id": "Yuu9iQKWuTRPPP2etY5aYw", "longitude": -71.05603, "num_reviews": 25, "restaurant_name": "Dunkin'", "latitude": 42.3358, "is_closed": 0, "zip_code": "02127"}
{"cuisine": "Italian, Cocktail Bars", "star_rating": 3.5, "transactions": "delivery", "restaurant_id": "m0b79jiAXpcvJXyZlu82UA", "longitude": -71.1014881168698, "num_reviews": 66, "restaurant_name": "Orfano", "latitude": 42.3436005155368, "is_closed": 0, "zip_code": "02215"}
{"cuisine": "Ice Cream & Frozen Yogurt, Custom Cakes, Caterers", "star_rating": 5.0, "transactions": "delivery", "restaurant_id": "dVyDxCZ5xe8N36iweXgDYQ", "longitude": -71.05461333, "num_reviews": 1, "restaurant_name": "Ben & Jerry\u2019s", "latitude": 42.36102, "is_closed": 0, "zip_code": "02109"}
{"cuisine": "Bakeries", "star_rating": 5.0, "transactions": null, "restaurant_id": "2gOek5OeA40UR0wvm9sMEA", "longitude": -71.03269, "num_reviews": 5, "restaurant_name": "St Emilion Macaroon", "latitude": 42.36646, "is_closed": 0, "zip_code": "02128"}
{"cuisine": "Seafood", "star_rating": 4.5, "transactions": "delivery", "restaurant_id": "8F0UbNwdcrtmiIMeR0sU-Q", "longitude": -71.0313719262815, "num_reviews": 4, "restaurant_name": "Yankee Lobster", "latitude": 42.3444233868516, "is_closed": 0, "zip_code": "02210"}
{"cuisine": "Diners, Seafood, Breakfast & Brunch", "star_rating": 3.5, "transactions": "pickup, delivery", "restaurant_id": "s6dpbPyJqxXWU-I2-VpSeg", "longitude": -71.108923897828, "num_reviews": 240, "restaurant_name": "Busy Bee Restaurant", "latitude": 42.3458941178738, "is_closed": 0, "zip_code": "02446"}
{"cuisine": "Coffee & Tea", "star_rating": 3.5, "transactions": "delivery", "restaurant_id": "SkoTp2PfSCQ8AGfvSKqShg", "longitude": -71.059228, "num_reviews": 39, "restaurant_name": "Starbucks", "latitude": 42.359349, "is_closed": 0, "zip_code": "02108"}
{"cuisine": "Chinese", "star_rating": 2.0, "transactions": "delivery, pickup", "restaurant_id": "jL0KjoMc2fPq8whe-EVDuQ", "longitude": -71.15439, "num_reviews": 146, "restaurant_name": "Happy Garden Chinese", "latitude": 42.34929, "is_closed": 0, "zip_code": "02135"}
{"cuisine": "Parks", "star_rating": 4.5, "transactions": null, "restaurant_id": "t6kZKcoqw1p-dPt3D_XSDg", "longitude": -71.0524673, "num_reviews": 9, "restaurant_name": "Rose Fitzgerald Kennedy Greenway Conservancy", "latitude": 42.3557396, "is_closed": 0, "zip_code": "02110"}
{"cuisine": "Seafood", "star_rating": 3.0, "transactions": "delivery", "restaurant_id": "eHZLtnQOjNsL1_X4TJmtOQ", "longitude": -71.08712, "num_reviews": 478, "restaurant_name": "Legal Sea Foods", "latitude": 42.36264, "is_closed": 0, "zip_code": "02142"}
{"cuisine": "Donuts, Coffee & Tea", "star_rating": 2.0, "transactions": "delivery", "restaurant_id": "a8QCnmBUDuXlP_W4mUoJ4A", "longitude": -71.0206985473633, "num_reviews": 12, "restaurant_name": "Dunkin'", "latitude": 42.3982315063477, "is_closed": 0, "zip_code": "02150"}
{"cuisine": "Indian", "star_rating": 4.0, "transactions": "delivery", "restaurant_id": "pz3xTKLSZAvEWJ0XhcuH0Q", "longitude": -71.08397, "num_reviews": 3, "restaurant_name": "One World Cuisine", "latitude": 42.34936, "is_closed": 0, "zip_code": "02116"}
{"cuisine": "Pizza", "star_rating": 3.5, "transactions": "delivery, pickup", "restaurant_id": "DvP4ZL3zQDg_2oA5iqgxbw", "longitude": -71.048971, "num_reviews": 43, "restaurant_name": "Puritan Pizza", "latitude": 42.29561, "is_closed": 0, "zip_code": "02122"}
{"cuisine": "Donuts, Coffee & Tea", "star_rating": 2.0, "transactions": null, "restaurant_id": "mBAwgFBsr6_JMKcC35jXOQ", "longitude": -71.06235, "num_reviews": 9, "restaurant_name": "Dunkin'", "latitude": 42.36619, "is_closed": 0, "zip_code": "02114"}
{"cuisine": "Pizza, Chicken Wings, Sandwiches", "star_rating": 1.5, "transactions": "pickup, delivery", "restaurant_id": "OAnTiPy1F2BeNfpOW46ZZQ", "longitude": -71.13977, "num_reviews": 43, "restaurant_name": "Domino's Pizza", "latitude": 42.274879, "is_closed": 0, "zip_code": "02131"}
{"cuisine": "Convenience Stores, Coffee & Tea", "star_rating": 2.0, "transactions": null, "restaurant_id": "QJaUIFmydS-ITL_--raPHw", "longitude": -71.1577619612217, "num_reviews": 7, "restaurant_name": "7-Eleven", "latitude": 42.3717773265427, "is_closed": 0, "zip_code": "02472"}
{"cuisine": "Museums", "star_rating": 5.0, "transactions": null, "restaurant_id": "bIPkZfyFVR7-mDDZyxuKAQ", "longitude": -71.1244568, "num_reviews": 1, "restaurant_name": "Brookline Historical Society Edward Devotion House", "latitude": 42.3442365, "is_closed": 0, "zip_code": "02446"}
{"cuisine": "Bakeries, Cupcakes", "star_rating": 4.0, "transactions": "delivery", "restaurant_id": "Yo-GBPvqxx-5mVeAlFh6MQ", "longitude": -71.2739342877882, "num_reviews": 126, "restaurant_name": "Quebrada Baking Company", "latitude": 42.3128401880094, "is_closed": 0, "zip_code": "02482"}
{"cuisine": "Coffee & Tea", "star_rating": 2.0, "transactions": null, "restaurant_id": "mobTH1ZaxdzL_Id_phPchA", "longitude": -71.025767, "num_reviews": 18, "restaurant_name": "Starbucks", "latitude": 42.363435, "is_closed": 0, "zip_code": "02128"}
{"cuisine": "Seafood, Seafood Markets", "star_rating": 4.5, "transactions": null, "restaurant_id": "6MdhcAPGDMMU0cCkaIEoNw", "longitude": -71.0568845, "num_reviews": 186, "restaurant_name": "Red's Best Seafood at the Boston Public Market", "latitude": 42.3619445, "is_closed": 0, "zip_code": "02108"}
{"cuisine": "Parks", "star_rating": 4.0, "transactions": null, "restaurant_id": "Q4Z68O-MT4NO4hvFA3-CMg", "longitude": -71.13556, "num_reviews": 1, "restaurant_name": "Fallon Field", "latitude": 42.287371, "is_closed": 0, "zip_code": "02131"}
{"cuisine": "Museums", "star_rating": 4.5, "transactions": null, "restaurant_id": "ZSaizqMFNDRGEsJAJ0sOpA", "longitude": -71.05935, "num_reviews": 27, "restaurant_name": "USS Cassin Young", "latitude": 42.37204, "is_closed": 0, "zip_code": "02129"}
{"cuisine": "Pizza, Chicken Wings, Sandwiches", "star_rating": 2.5, "transactions": "pickup, delivery", "restaurant_id": "oJzYcH8oFIQy4epHiNQOjw", "longitude": -71.1119652024696, "num_reviews": 46, "restaurant_name": "Domino's Pizza", "latitude": 42.3697186599763, "is_closed": 0, "zip_code": "02138"}
{"cuisine": "Diners, Burgers, Sandwiches", "star_rating": 4.0, "transactions": "delivery", "restaurant_id": "weU0q3ynxpGmM6c8x9fhaQ", "longitude": -71.1050109863281, "num_reviews": 37, "restaurant_name": "Pat's Place", "latitude": 42.3344421386719, "is_closed": 0, "zip_code": "02115"}
{"cuisine": "Cantonese", "star_rating": 4.0, "transactions": "delivery", "restaurant_id": "wOsTAvCIVjB-fPQBJepMQg", "longitude": -71.0604549, "num_reviews": 333, "restaurant_name": "Clay Pot Cafe", "latitude": 42.3504982, "is_closed": 0, "zip_code": "02111"}
{"cuisine": "Pizza, American (New)", "star_rating": 5.0, "transactions": null, "restaurant_id": "HmQzcuZtzdw38wZbC_xs4A", "longitude": -71.0541, "num_reviews": 1, "restaurant_name": "Lily's Garden & Patio", "latitude": 42.357407, "is_closed": 0, "zip_code": "02110"}
{"cuisine": "Coffee & Tea", "star_rating": 3.0, "transactions": null, "restaurant_id": "mLyXF5a_xwBVOQ4r5XN_uQ", "longitude": -71.05497, "num_reviews": 11, "restaurant_name": "Boston Cafe", "latitude": 42.360261, "is_closed": 0, "zip_code": "02109"}
{"cuisine": "Parks", "star_rating": 3.5, "transactions": null, "restaurant_id": "yzIbSIRcW3ntrYjJ2QRYng", "longitude": -71.1369548, "num_reviews": 3, "restaurant_name": "Stanley Ringer Playground", "latitude": 42.3521704, "is_closed": 0, "zip_code": "02134"}
{"cuisine": "Pizza, Mexican", "star_rating": 3.0, "transactions": "delivery, pickup", "restaurant_id": "SJOXT6kt-sotD9XSxxB-sw", "longitude": -71.1074523925781, "num_reviews": 54, "restaurant_name": "Burritos Pizzeria", "latitude": 42.3061904907227, "is_closed": 0, "zip_code": "02130"}
{"cuisine": "Sandwiches", "star_rating": 3.0, "transactions": "pickup, delivery", "restaurant_id": "fxeEHZtasRi7Wvk7FcFJ7Q", "longitude": -71.0294399, "num_reviews": 14, "restaurant_name": "D'Angelo", "latitude": 42.2771199, "is_closed": 0, "zip_code": "02171"}
{"cuisine": "Pizza, Italian", "star_rating": 3.5, "transactions": "delivery, pickup", "restaurant_id": "g54E96BkJ5qKw33v9lMFQg", "longitude": -71.06557, "num_reviews": 70, "restaurant_name": "Primo's Pizza Restaurant", "latitude": 42.3592, "is_closed": 0, "zip_code": "02114"}
{"cuisine": "Sandwiches, Salad", "star_rating": 2.5, "transactions": "delivery", "restaurant_id": "5jqz6HmPvMvfhYMPlOJqiA", "longitude": -71.07574, "num_reviews": 4, "restaurant_name": "Cosi", "latitude": 42.36785, "is_closed": 0, "zip_code": "02141"}
{"cuisine": "Bakeries, Sandwiches", "star_rating": 4.0, "transactions": "delivery", "restaurant_id": "A5qgYfVjnKP7J4KXEmgGOw", "longitude": -71.0616044, "num_reviews": 146, "restaurant_name": "Mei Sum", "latitude": 42.3515936, "is_closed": 0, "zip_code": "02111"}
{"cuisine": "Wine Bars, American (Traditional)", "star_rating": 2.5, "transactions": null, "restaurant_id": "h4zAQs9BHUrErZod0u48JA", "longitude": -71.0642162465513, "num_reviews": 26, "restaurant_name": "Wisteria Restaurant", "latitude": 42.3487672107925, "is_closed": 0, "zip_code": "02111"}
{"cuisine": "Fast Food, Burgers, Coffee & Tea", "star_rating": 2.5, "transactions": "delivery", "restaurant_id": "db2bKAphF2qbl53AURLqeg", "longitude": -71.058975, "num_reviews": 42, "restaurant_name": "McDonald's", "latitude": 42.356899, "is_closed": 0, "zip_code": "02108"}
{"cuisine": "Seafood", "star_rating": 2.5, "transactions": null, "restaurant_id": "TL7K3KYjHsQk6KVz9Yz_KQ", "longitude": -71.05128, "num_reviews": 4, "restaurant_name": "The Daily Catch", "latitude": 42.362923, "is_closed": 0, "zip_code": "02110"}
{"cuisine": "Pizza", "star_rating": 3.0, "transactions": "delivery, pickup", "restaurant_id": "wZWO0zohJP7N6g6LJbUhCA", "longitude": -71.1197272, "num_reviews": 69, "restaurant_name": "Village Pizza House", "latitude": 42.3331831, "is_closed": 0, "zip_code": "02445"}
{"cuisine": "Donuts, Coffee & Tea", "star_rating": 4.0, "transactions": "delivery", "restaurant_id": "k745vIMvsTaGVJs3LcqQDw", "longitude": -71.1236003, "num_reviews": 4, "restaurant_name": "Dunkin'", "latitude": 42.257976, "is_closed": 0, "zip_code": "02136"}
{"cuisine": "Parks", "star_rating": 3.5, "transactions": null, "restaurant_id": "IWaBs_GOYKaaqny1Ku1dYg", "longitude": -71.08461, "num_reviews": 9, "restaurant_name": "Gold Star Mothers Park", "latitude": 42.37238, "is_closed": 0, "zip_code": "02238"}
{"cuisine": "Playgrounds, Parks", "star_rating": 5.0, "transactions": null, "restaurant_id": "Y2Huup5bIwTbm9DqQMNQNA", "longitude": -71.104237139225, "num_reviews": 2, "restaurant_name": "Maple Avenue Park", "latitude": 42.373347710817, "is_closed": 0, "zip_code": "02139"}
{"cuisine": "Seafood, Indian, Buffets", "star_rating": 4.0, "transactions": "pickup, delivery", "restaurant_id": "4UjU7F_EX3lgUtkzN8Bbrw", "longitude": -71.12951, "num_reviews": 420, "restaurant_name": "Shan-A-Punjab", "latitude": 42.3479699, "is_closed": 0, "zip_code": "02446"}
{"cuisine": "Coffee & Tea", "star_rating": 3.0, "transactions": "delivery", "restaurant_id": "EkUArSC-WXrZYjER8ZOSUQ", "longitude": -71.152667, "num_reviews": 32, "restaurant_name": "Starbucks", "latitude": 42.287273, "is_closed": 0, "zip_code": "02132"}
{"cuisine": "Chinese", "star_rating": 4.5, "transactions": null, "restaurant_id": "Y2GEynQVra1LNS6aUzGG3A", "longitude": -71.054034, "num_reviews": 2, "restaurant_name": "Megumi", "latitude": 42.360254, "is_closed": 0, "zip_code": "02139"}
{"cuisine": "Italian", "star_rating": 4.5, "transactions": "delivery", "restaurant_id": "7_q1IsPoR25clSoigtGmeg", "longitude": -71.05349, "num_reviews": 531, "restaurant_name": "Pomodoro", "latitude": 42.36454, "is_closed": 0, "zip_code": "02113"}
{"cuisine": "Burgers", "star_rating": 2.5, "transactions": "delivery", "restaurant_id": "C5WbX71az-SdNlWt3HEy_g", "longitude": -71.0884307, "num_reviews": 17, "restaurant_name": "UBurger", "latitude": 42.3403356, "is_closed": 0, "zip_code": "02115"}
{"cuisine": "Japanese, Cocktail Bars", "star_rating": 3.5, "transactions": "delivery", "restaurant_id": "DkhLETFI7Z49Kbsa6E1icA", "longitude": -71.0969520423279, "num_reviews": 395, "restaurant_name": "Hojoko Boston", "latitude": 42.3451899451252, "is_closed": 0, "zip_code": "02215"}
{"cuisine": "Seafood", "star_rating": 5.0, "transactions": null, "restaurant_id": "Ldal15IrgfQ0GNgxd5qnaA", "longitude": -71.0388266, "num_reviews": 1, "restaurant_name": "Beau's Seafood", "latitude": 42.349721, "is_closed": 0, "zip_code": "02210"}
{"cuisine": "Parks", "star_rating": 3.0, "transactions": null, "restaurant_id": "urBv-quq6TzNp98TbRCfWA", "longitude": -71.0795540915432, "num_reviews": 1, "restaurant_name": "Ramsay Park", "latitude": 42.3345209778828, "is_closed": 0, "zip_code": "02118"}
{"cuisine": "Caterers, Bakeries", "star_rating": 5.0, "transactions": null, "restaurant_id": "goeF59HeYuNXNmhSG6nqZA", "longitude": -71.1552897, "num_reviews": 13, "restaurant_name": "The Vintage Tea & Cake Co", "latitude": 42.3752476, "is_closed": 0, "zip_code": "02478"}
{"cuisine": "Cafes", "star_rating": 2.0, "transactions": null, "restaurant_id": "AMkEnLNBel92C0LhbTwBlw", "longitude": -71.124193, "num_reviews": 1, "restaurant_name": "InnoBreak Cafe", "latitude": 42.364084, "is_closed": 0, "zip_code": "02163"}
{"cuisine": "Mexican", "star_rating": 2.5, "transactions": "delivery, pickup", "restaurant_id": "tMnK-Pip_N_XiGo4wPjegQ", "longitude": -71.1055755615234, "num_reviews": 307, "restaurant_name": "Montecristo Mexican Grill", "latitude": 42.3336133462135, "is_closed": 0, "zip_code": "02115"}
{"cuisine": "Thai", "star_rating": 4.0, "transactions": "delivery, pickup", "restaurant_id": "QB4BEcqZbdAIFbYCLuDnSA", "longitude": -71.16671933, "num_reviews": 70, "restaurant_name": "Pineapple Thai cuisine", "latitude": 42.32328533, "is_closed": 0, "zip_code": "02467"}
{"cuisine": "Irish, Music Venues, Pubs", "star_rating": 4.0, "transactions": "delivery, pickup", "restaurant_id": "2v0-gBcXethuNFT6rMGiRw", "longitude": -71.0536599, "num_reviews": 432, "restaurant_name": "Mr. Dooley's", "latitude": 42.35765, "is_closed": 0, "zip_code": "02109"}
{"cuisine": "Chinese, Seafood", "star_rating": 3.5, "transactions": "delivery", "restaurant_id": "9Jiax4wZ94ZmMcMzmpdvJA", "longitude": -71.1218514, "num_reviews": 319, "restaurant_name": "Victoria Seafood Restaurant", "latitude": 42.3520916, "is_closed": 0, "zip_code": "02215"}
{"cuisine": "Active Life, Local Flavor", "star_rating": 4.5, "transactions": null, "restaurant_id": "06jyL7iohG-Kvu7iiJblGg", "longitude": -71.0749053955078, "num_reviews": 45, "restaurant_name": "The Charles River", "latitude": 42.3612747192383, "is_closed": 0, "zip_code": "02114"}
{"cuisine": "Latin American, Brazilian, Seafood", "star_rating": 4.0, "transactions": "delivery, pickup", "restaurant_id": "sUBnTXhtUcOpjrZhAhHzqQ", "longitude": -71.093895, "num_reviews": 631, "restaurant_name": "Muqueca Restaurant", "latitude": 42.372679, "is_closed": 0, "zip_code": "02141"}
{"cuisine": "Caribbean, Venezuelan", "star_rating": 4.0, "transactions": "pickup, delivery", "restaurant_id": "e7g8vGmr0a-YW1lBtEBLrg", "longitude": -71.07596, "num_reviews": 597, "restaurant_name": "Orinoco", "latitude": 42.33892, "is_closed": 0, "zip_code": "02118"}
{"cuisine": "Parks", "star_rating": 4.5, "transactions": null, "restaurant_id": "vm_0GGlARLK5gjzgEnG8uw", "longitude": -71.115817, "num_reviews": 2, "restaurant_name": "Wheeler Park", "latitude": 42.364919, "is_closed": 0, "zip_code": "02138"}
{"cuisine": "Indian, Vegan, Gluten-Free", "star_rating": 4.0, "transactions": "delivery, pickup", "restaurant_id": "m4qhmWNKfgbJ502Zo6uZlw", "longitude": -71.0462572274013, "num_reviews": 128, "restaurant_name": "Tikkaway Fresh Indian Grill", "latitude": 42.350888388135, "is_closed": 0, "zip_code": "02210"}
{"cuisine": "Caribbean", "star_rating": 2.5, "transactions": "delivery", "restaurant_id": "Q3_QKeNVZj4825uTjhbcaw", "longitude": -71.0935966387083, "num_reviews": 11, "restaurant_name": "Las Vegas Express Restaurant", "latitude": 42.2693078268948, "is_closed": 0, "zip_code": "02126"}
{"cuisine": "Pizza", "star_rating": 3.5, "transactions": "pickup, delivery", "restaurant_id": "4uoc-mqHB7NNVUeVVAP41Q", "longitude": -71.0389951, "num_reviews": 18, "restaurant_name": "Pizza Shuttle", "latitude": 42.375747, "is_closed": 0, "zip_code": "02128"}
{"cuisine": "Sandwiches, Coffee & Tea, Breakfast & Brunch", "star_rating": 3.5, "transactions": "delivery", "restaurant_id": "BAC-9njvQzG9KekYJ2cEWg", "longitude": -71.109579691078, "num_reviews": 325, "restaurant_name": "Darwin's", "latitude": 42.374979616721, "is_closed": 0, "zip_code": "02138"}
{"cuisine": "Italian, Pizza, Wraps", "star_rating": 4.5, "transactions": "pickup, delivery", "restaurant_id": "hmIudx02njSQxomFgbGruw", "longitude": -71.05461, "num_reviews": 327, "restaurant_name": "Casa Razdora", "latitude": 42.35805, "is_closed": 0, "zip_code": "02109"}
{"cuisine": "Chinese", "star_rating": 3.0, "transactions": "pickup, delivery", "restaurant_id": "05hDm5BdZedOjIrXx3dokA", "longitude": -71.125261, "num_reviews": 20, "restaurant_name": "Souper Bowl", "latitude": 42.352365, "is_closed": 0, "zip_code": "02134"}
{"cuisine": "Coffee & Tea, Breakfast & Brunch", "star_rating": 3.5, "transactions": "pickup, delivery", "restaurant_id": "H4YFi3JSp5DhLg5IdxaNGw", "longitude": -71.153648, "num_reviews": 116, "restaurant_name": "Cafe Mirror", "latitude": 42.348922, "is_closed": 0, "zip_code": "02135"}
{"cuisine": "Banks & Credit Unions, Coffee & Tea", "star_rating": 4.5, "transactions": null, "restaurant_id": "I0JjUle_W-9Ukv_bbd0NeA", "longitude": -71.0619601, "num_reviews": 51, "restaurant_name": "Capital One Caf\u00e9", "latitude": 42.3562641, "is_closed": 0, "zip_code": "02108"}
{"cuisine": "Japanese, Sushi Bars, Asian Fusion", "star_rating": 2.5, "transactions": "pickup, delivery", "restaurant_id": "FcWudzn4O2Jq2TwgY7RA2Q", "longitude": -71.134444847703, "num_reviews": 5, "restaurant_name": "Matuya Asian Cuisine", "latitude": 42.3388174921274, "is_closed": 0, "zip_code": "02446"}
{"cuisine": "Fast Food, Burgers, Coffee & Tea", "star_rating": 2.0, "transactions": "delivery", "restaurant_id": "u3kFKGZ3WsLDRlrb1QBXOg", "longitude": -71.096748, "num_reviews": 52, "restaurant_name": "McDonald's", "latitude": 42.348572, "is_closed": 0, "zip_code": "02215"}
{"cuisine": "American (New), Bars, Breakfast & Brunch", "star_rating": 3.0, "transactions": "delivery", "restaurant_id": "KTYNXnLKrd-0sBvaVwUYSw", "longitude": -71.08725, "num_reviews": 91, "restaurant_name": "The Black Sheep Restaurant & Bar", "latitude": 42.362207, "is_closed": 0, "zip_code": "02142"}
{"cuisine": "Fast Food, Burgers", "star_rating": 4.0, "transactions": "delivery", "restaurant_id": "vyPhglyIk62FJqBVb7F3jw", "longitude": -71.16773183354698, "num_reviews": 161, "restaurant_name": "Five Guys", "latitude": 42.25787550102035, "is_closed": 0, "zip_code": "02026"}
{"cuisine": "Fast Food, Burgers, Coffee & Tea", "star_rating": 1.5, "transactions": "delivery", "restaurant_id": "eKnAUsbCWLnKANr1C0FHLA", "longitude": -71.131012, "num_reviews": 78, "restaurant_name": "McDonald's", "latitude": 42.350683, "is_closed": 0, "zip_code": "02134"}
{"cuisine": "Chinese", "star_rating": 3.0, "transactions": "delivery", "restaurant_id": "7pV_lZa8FZz2_54BvwFywQ", "longitude": -71.1064791, "num_reviews": 189, "restaurant_name": "Beijing Cafe", "latitude": 42.3497496, "is_closed": 0, "zip_code": "02215"}
{"cuisine": "Coffee & Tea", "star_rating": 3.5, "transactions": "delivery", "restaurant_id": "jNwjyczufoa8cJ3O3i-N7w", "longitude": -71.050707, "num_reviews": 54, "restaurant_name": "Starbucks", "latitude": 42.363948, "is_closed": 0, "zip_code": "02110"}
{"cuisine": "Ice Cream & Frozen Yogurt, Caterers, Custom Cakes", "star_rating": 4.0, "transactions": "delivery, pickup", "restaurant_id": "0EILBP5TxMPujUxkAfjAaA", "longitude": -71.0789712, "num_reviews": 91, "restaurant_name": "Ben & Jerry\u2019s", "latitude": 42.3503033, "is_closed": 0, "zip_code": "02116"}
{"cuisine": "Ramen, Thai, Vietnamese", "star_rating": 4.5, "transactions": "delivery, pickup", "restaurant_id": "BCJdTd2NX4sMJFZnhsu8ug", "longitude": -71.126546, "num_reviews": 70, "restaurant_name": "Soup Shack Brookline", "latitude": 42.345253, "is_closed": 0, "zip_code": "02446"}
{"cuisine": "Pizza, Gluten-Free, American (Traditional)", "star_rating": 2.5, "transactions": "delivery, pickup", "restaurant_id": "sf21ttvbJ-fXV27v9YVg6A", "longitude": -71.1707651, "num_reviews": 116, "restaurant_name": "Uno Pizzeria & Grill", "latitude": 42.2552828, "is_closed": 0, "zip_code": "02026"}
{"cuisine": "Dim Sum", "star_rating": 3.5, "transactions": "delivery", "restaurant_id": "RtY75rfzEP19n9Ou4DSEHQ", "longitude": -71.060564754751, "num_reviews": 1053, "restaurant_name": "Winsor Dim Sum Caf\u00e9", "latitude": 42.351011898927, "is_closed": 0, "zip_code": "02111"}
{"cuisine": "Italian", "star_rating": 4.0, "transactions": "pickup, delivery", "restaurant_id": "uBXOc3uxpCSmd22P6LOeew", "longitude": -71.0533, "num_reviews": 647, "restaurant_name": "Mamma Maria", "latitude": 42.36409, "is_closed": 0, "zip_code": "02113"}
{"cuisine": "Wine Bars", "star_rating": 4.5, "transactions": null, "restaurant_id": "DF7RTM13rH3ZCUk46EEwaA", "longitude": -71.0983399, "num_reviews": 37, "restaurant_name": "Rebel Rebel", "latitude": 42.38091, "is_closed": 0, "zip_code": "02143"}
{"cuisine": "Noodles, Ramen", "star_rating": 4.5, "transactions": "pickup, delivery", "restaurant_id": "hdBsXpL9uAllcb2QsqzK7g", "longitude": -71.084818, "num_reviews": 154, "restaurant_name": "Red White", "latitude": 42.34883, "is_closed": 0, "zip_code": "02115"}
{"cuisine": "Salvadoran", "star_rating": 4.0, "transactions": "pickup, delivery", "restaurant_id": "39K3YQ8ZTUoJXMnpjtP4UA", "longitude": -71.02813, "num_reviews": 33, "restaurant_name": "Tu Metapan Restaurant", "latitude": 42.3787499, "is_closed": 0, "zip_code": "02128"}
{"cuisine": "Chicken Wings", "star_rating": 4.0, "transactions": "delivery, pickup", "restaurant_id": "o4BBtr4LDP2w11xBRYIa8A", "longitude": -71.0812073, "num_reviews": 9, "restaurant_name": "Crown Fried Chicken", "latitude": 42.3190384, "is_closed": 0, "zip_code": "02119"}
{"cuisine": "Noodles, Ramen, Chinese", "star_rating": 3.5, "transactions": "pickup, delivery", "restaurant_id": "hPl-bitsv3Pj0RpPibp4Jw", "longitude": -71.0629159, "num_reviews": 56, "restaurant_name": "Wen\u2019s Noodle & Ramen \u8fc7\u6865\u7c73\u7ebf", "latitude": 42.3553111, "is_closed": 0, "zip_code": "02111"}
{"cuisine": "Latin American", "star_rating": 3.0, "transactions": "delivery", "restaurant_id": "d8B45fXc16UcMYXe7Hbuaw", "longitude": -71.037933, "num_reviews": 14, "restaurant_name": "La Terraza", "latitude": 42.375026, "is_closed": 0, "zip_code": "02128"}
{"cuisine": "Parks, Swimming Pools, Beaches", "star_rating": 3.5, "transactions": null, "restaurant_id": "FekacfLT0iJv6fn6T1xTOg", "longitude": -71.0105412, "num_reviews": 37, "restaurant_name": "Constitution Beach", "latitude": 42.385245, "is_closed": 0, "zip_code": "02128"}
{"cuisine": "Italian", "star_rating": 4.0, "transactions": "pickup, delivery", "restaurant_id": "gCsidBqhALICug9E2AphCw", "longitude": -71.07076, "num_reviews": 452, "restaurant_name": "Basile - Fine Italian Kitchen", "latitude": 42.3493148, "is_closed": 0, "zip_code": "02116"}
{"cuisine": "Bakeries, Cafes", "star_rating": 4.5, "transactions": "delivery, pickup", "restaurant_id": "2F5L_0MZSPp5egi_yY0-yA", "longitude": -71.08253, "num_reviews": 222, "restaurant_name": "Haley House Bakery Caf\u00e9", "latitude": 42.33204, "is_closed": 0, "zip_code": "02119"}
{"cuisine": "Sushi Bars, Seafood, Japanese", "star_rating": 4.5, "transactions": "pickup, delivery", "restaurant_id": "GfuDpypk9ekc8OsMRTMJ0A", "longitude": -71.0555399, "num_reviews": 297, "restaurant_name": "North End Fish Market", "latitude": 42.36392, "is_closed": 0, "zip_code": "02113"}
{"cuisine": "Bakeries, Gluten-Free", "star_rating": 4.0, "transactions": null, "restaurant_id": "ubDQrboLTba1_Quv3Cj2AQ", "longitude": -71.119513, "num_reviews": 79, "restaurant_name": "Violette Gluten Free Bakery", "latitude": 42.385942, "is_closed": 0, "zip_code": "02140"}
{"cuisine": "Desserts", "star_rating": 5.0, "transactions": null, "restaurant_id": "pv-ci-AWQ-aFg9dHkiB9BQ", "longitude": -71.0756005346775, "num_reviews": 1, "restaurant_name": "Girl Scout Cookie Creations", "latitude": 42.3665857315063, "is_closed": 0, "zip_code": "02142"}
{"cuisine": "Juice Bars & Smoothies, Salad, Acai Bowls", "star_rating": 4.0, "transactions": "delivery", "restaurant_id": "XG0NEOFrYyXWObPi7AfHyA", "longitude": -71.0570988328017, "num_reviews": 58, "restaurant_name": "Mother Juice", "latitude": 42.3618656976739, "is_closed": 0, "zip_code": "02108"}
{"cuisine": "Pizza", "star_rating": 3.5, "transactions": "delivery", "restaurant_id": "kTJuktitQAr_h0ImsFrAOg", "longitude": -71.176166, "num_reviews": 375, "restaurant_name": "Frank Pepe Pizzeria Napoletana - Chestnut Hill", "latitude": 42.321763, "is_closed": 0, "zip_code": "02467"}
{"cuisine": "Middle Eastern, Grocery, Meat Shops", "star_rating": 4.0, "transactions": null, "restaurant_id": "8DMJ74QTxlpqy56zZ_3Vbw", "longitude": -71.0562087, "num_reviews": 14, "restaurant_name": "Haymarket International Food Co", "latitude": 42.3614272, "is_closed": 0, "zip_code": "02109"}
{"cuisine": "Breakfast & Brunch, Coffee & Tea, American (New)", "star_rating": 3.0, "transactions": "delivery, pickup", "restaurant_id": "vSBfyd4ghB0dEC69rwbc0g", "longitude": -71.06721, "num_reviews": 6, "restaurant_name": "Cafe 1010", "latitude": 42.32756, "is_closed": 0, "zip_code": "02118"}
{"cuisine": "Museums", "star_rating": 4.0, "transactions": null, "restaurant_id": "aboJ52FaVuehtZup6XjIwQ", "longitude": -71.1800115555525, "num_reviews": 1, "restaurant_name": "Historical Society of Watertown", "latitude": 42.3685618489981, "is_closed": 0, "zip_code": "02472"}
{"cuisine": "Turkish", "star_rating": 4.0, "transactions": "delivery, pickup", "restaurant_id": "25jq12iDKjHzyTFGHXtlFQ", "longitude": -71.0648162, "num_reviews": 204, "restaurant_name": "Ali Baba", "latitude": 42.3436126, "is_closed": 0, "zip_code": "02118"}
{"cuisine": "Beaches", "star_rating": 3.5, "transactions": null, "restaurant_id": "FpxtBgfX1RtZ1AUvcEPfIw", "longitude": -71.04581, "num_reviews": 7, "restaurant_name": "Tenean Beach", "latitude": 42.29271, "is_closed": 0, "zip_code": "02124"}
{"cuisine": "Diners, American (Traditional), Breakfast & Brunch", "star_rating": 3.5, "transactions": "pickup, delivery", "restaurant_id": "GHe641VggznYYFnD9RM8pQ", "longitude": -71.113516, "num_reviews": 430, "restaurant_name": "Zoe's", "latitude": 42.370826, "is_closed": 0, "zip_code": "02138"}
{"cuisine": "Thai, Vegan, Bubble Tea", "star_rating": 3.5, "transactions": "delivery, pickup", "restaurant_id": "3DtTVTvn8FgmGuEfogXSmg", "longitude": -71.0625566545629, "num_reviews": 854, "restaurant_name": "My Thai Vegan Cafe", "latitude": 42.3514659685996, "is_closed": 0, "zip_code": "02111"}
{"cuisine": "Sandwiches", "star_rating": 4.5, "transactions": "delivery, pickup", "restaurant_id": "Xb92ROMBIobRwUqMLsh49g", "longitude": -71.08889, "num_reviews": 88, "restaurant_name": "Souper Roll Up Cafe", "latitude": 42.37201, "is_closed": 0, "zip_code": "02141"}
{"cuisine": "Pizza", "star_rating": 3.0, "transactions": "pickup, delivery", "restaurant_id": "f4zdDqGEoroOJ7pXbNADhA", "longitude": -71.093584, "num_reviews": 207, "restaurant_name": "Cafe 472", "latitude": 42.3487327, "is_closed": 0, "zip_code": "02215"}
{"cuisine": "Asian Fusion", "star_rating": 3.5, "transactions": "delivery, pickup", "restaurant_id": "kXCBLqxFHmYstXO3M6O15Q", "longitude": -71.16289, "num_reviews": 54, "restaurant_name": "Wok n Talk", "latitude": 42.34921, "is_closed": 0, "zip_code": "02135"}
{"cuisine": "Sushi Bars", "star_rating": 4.5, "transactions": "delivery, pickup", "restaurant_id": "C3-m3wOZfYp7tNqKyHUcGQ", "longitude": -71.006882, "num_reviews": 82, "restaurant_name": "Sunny Cafe", "latitude": 42.386834, "is_closed": 0, "zip_code": "02128"}
{"cuisine": "Ice Cream & Frozen Yogurt, Food Trucks", "star_rating": 5.0, "transactions": null, "restaurant_id": "yiE49WMm_O2RYmccj0Brrg", "longitude": -71.0165828, "num_reviews": 1, "restaurant_name": "MO's Ice Cream", "latitude": 42.4413758, "is_closed": 0, "zip_code": "02151"}
{"cuisine": "Cajun/Creole", "star_rating": 1.0, "transactions": null, "restaurant_id": "CxVjFV95ylzr26ws1JwhHA", "longitude": -71.0603389517368, "num_reviews": 3, "restaurant_name": "Bourbon Street Cafe & Grille", "latitude": 42.3559280375037, "is_closed": 0, "zip_code": "02108"}
{"cuisine": "Thai, Salad, Noodles", "star_rating": 3.0, "transactions": "delivery, pickup", "restaurant_id": "84-VYasaVm6zCDw3T_LfDg", "longitude": -71.1182038112895, "num_reviews": 267, "restaurant_name": "Spicies Cambridge", "latitude": 42.3723663532739, "is_closed": 0, "zip_code": "02138"}
{"cuisine": "Festivals, Local Flavor", "star_rating": 4.0, "transactions": null, "restaurant_id": "-SiRb4Gyz37l4N056cvJYA", "longitude": -71.1168649, "num_reviews": 1, "restaurant_name": "Jamaica Pond Lantern Parade", "latitude": 42.3166791, "is_closed": 0, "zip_code": "02130"}
{"cuisine": "Spanish", "star_rating": 3.5, "transactions": "delivery, pickup", "restaurant_id": "_U29pRKPP1Lp6fhWJ-Sr5Q", "longitude": -71.0797918, "num_reviews": 6, "restaurant_name": "L&C Spanish Restaurant", "latitude": 42.296431, "is_closed": 0, "zip_code": "02124"}
{"cuisine": "Cafes", "star_rating": 3.5, "transactions": null, "restaurant_id": "MWyNFUJyQkUb5z_6xw4Gew", "longitude": -71.1008421206011, "num_reviews": 32, "restaurant_name": "Caff\u00e8 Nero", "latitude": 42.343998, "is_closed": 0, "zip_code": "02215"}
{"cuisine": "Chinese", "star_rating": 3.5, "transactions": "delivery", "restaurant_id": "hHthBjajJOiTomzTfkHcag", "longitude": -71.07401, "num_reviews": 33, "restaurant_name": "Chinatown Express", "latitude": 42.27143, "is_closed": 0, "zip_code": "02126"}
{"cuisine": "Thai, Vietnamese, Asian Fusion", "star_rating": 4.0, "transactions": "delivery, pickup", "restaurant_id": "h0JnvqMcK_G7CeBijxaVAA", "longitude": -71.16598, "num_reviews": 60, "restaurant_name": "Pho O Sha", "latitude": 42.3639, "is_closed": 0, "zip_code": "02472"}
{"cuisine": "Turkish, Buffets", "star_rating": 3.5, "transactions": "pickup, delivery", "restaurant_id": "z4_Cw1bky-Xukqb-ZWK6Zg", "longitude": -71.1195343, "num_reviews": 65, "restaurant_name": "Anatolia Buffet and Kebab House", "latitude": 42.3334333, "is_closed": 0, "zip_code": "02445"}
{"cuisine": "Mediterranean, Greek", "star_rating": 3.5, "transactions": "pickup, delivery", "restaurant_id": "NIdnO8KahLVwnaoTki_nFQ", "longitude": -71.05839, "num_reviews": 55, "restaurant_name": "Noon Mediterranean", "latitude": 42.35375, "is_closed": 0, "zip_code": "02110"}
{"cuisine": "Desserts, Bakeries, Custom Cakes", "star_rating": 3.0, "transactions": "pickup, delivery", "restaurant_id": "G2DtKbQd9g84anwvDEiurA", "longitude": -71.10539, "num_reviews": 10, "restaurant_name": "Santia\u2019s Bakery", "latitude": 42.30885, "is_closed": 0, "zip_code": "02130"}
{"cuisine": "Bakeries, Waffles, Food Trucks", "star_rating": 4.0, "transactions": "pickup, delivery", "restaurant_id": "umSO7veSVjf8QflZOonmlA", "longitude": -71.1145, "num_reviews": 503, "restaurant_name": "Zinneken's Belgian Waffles - Harvard Square", "latitude": 42.3712, "is_closed": 0, "zip_code": "02138"}
{"cuisine": "American (New), Cafes, Cocktail Bars", "star_rating": 4.5, "transactions": "delivery", "restaurant_id": "SmOX52W6mib-qT7GptyDVQ", "longitude": -71.1131, "num_reviews": 299, "restaurant_name": "Brassica Kitchen & Cafe", "latitude": 42.30026, "is_closed": 0, "zip_code": "02130"}
{"cuisine": "Asian Fusion, Latin American, Juice Bars & Smoothies", "star_rating": 5.0, "transactions": "pickup, delivery", "restaurant_id": "L59LB2woHnRhJ4py1sgbsA", "longitude": -71.1511196, "num_reviews": 25, "restaurant_name": "Little Pecan Bistro", "latitude": 42.3488812, "is_closed": 0, "zip_code": "02135"}
{"cuisine": "Indian, Pakistani, Halal", "star_rating": 3.0, "transactions": "delivery, pickup", "restaurant_id": "Lz8FSSRB_r9X8RI2YEy97w", "longitude": -71.121644, "num_reviews": 199, "restaurant_name": "Curry House", "latitude": 42.341787, "is_closed": 0, "zip_code": "02446"}
{"cuisine": "Caribbean, Bakeries, Hot Dogs", "star_rating": 4.0, "transactions": null, "restaurant_id": "QML9IeyAcG0rVlFuTQ4d8g", "longitude": -71.0720039, "num_reviews": 5, "restaurant_name": "Auntie Vie's Restaurant", "latitude": 42.321338, "is_closed": 0, "zip_code": "02125"}
{"cuisine": "American (Traditional), Sports Bars, Salad", "star_rating": 3.5, "transactions": "delivery", "restaurant_id": "wA__asXpc5UJFtOEBWBluA", "longitude": -71.05745, "num_reviews": 178, "restaurant_name": "Harp & Bard", "latitude": 42.31305, "is_closed": 0, "zip_code": "02125"}
{"cuisine": "Breakfast & Brunch, Cafes", "star_rating": 3.5, "transactions": "delivery", "restaurant_id": "H_nEq0mJ_tg6pVEFpqxNog", "longitude": -71.082471, "num_reviews": 527, "restaurant_name": "Thornton's", "latitude": 42.344394, "is_closed": 0, "zip_code": "02115"}
{"cuisine": "Indian", "star_rating": 3.5, "transactions": "pickup, delivery", "restaurant_id": "tQbYsSvTAIV6uzZfMvdI2A", "longitude": -71.11127, "num_reviews": 307, "restaurant_name": "Harvest of India", "latitude": 42.36964, "is_closed": 0, "zip_code": "02138"}
{"cuisine": "Seafood, Bars", "star_rating": 3.5, "transactions": "pickup, delivery", "restaurant_id": "Ruq91rmQNweZ78TzKylQMg", "longitude": -71.05688, "num_reviews": 2819, "restaurant_name": "Union Oyster House", "latitude": 42.36126, "is_closed": 0, "zip_code": "02108"}
{"cuisine": "Mexican", "star_rating": 4.5, "transactions": null, "restaurant_id": "32kjWDETUZKbgVOViS6ZnQ", "longitude": -71.1152725219727, "num_reviews": 2, "restaurant_name": "Purple Cactus Burrito", "latitude": 42.315055847168, "is_closed": 0, "zip_code": ""}
{"cuisine": "Museums", "star_rating": 1.0, "transactions": null, "restaurant_id": "4Nt9W1xRBxsiWblxHuHTyQ", "longitude": -71.1182199, "num_reviews": 1, "restaurant_name": "Harvard Collections Museum Store", "latitude": 42.37299, "is_closed": 0, "zip_code": "02138"}
{"cuisine": "Italian, American (New)", "star_rating": 4.5, "transactions": "delivery", "restaurant_id": "2XoPo7BcS4AQQAnsYp5Jhg", "longitude": -71.1092199, "num_reviews": 273, "restaurant_name": "Pammy's", "latitude": 42.36847, "is_closed": 0, "zip_code": "02139"}
{"cuisine": "Donuts, Coffee & Tea", "star_rating": 2.0, "transactions": "delivery", "restaurant_id": "rgbuQP8Gdxzb36rcTGFVdQ", "longitude": -71.1200052948585, "num_reviews": 5, "restaurant_name": "Dunkin'", "latitude": 42.2670705284563, "is_closed": 0, "zip_code": "02136"}
{"cuisine": "Vegetarian, Salad", "star_rating": 3.5, "transactions": "delivery, pickup", "restaurant_id": "52KjelpMBgWEewcp5uh8zg", "longitude": -71.05407, "num_reviews": 18, "restaurant_name": "sweetgreen", "latitude": 42.35614, "is_closed": 0, "zip_code": "02110"}
{"cuisine": "Coffee & Tea", "star_rating": 4.0, "transactions": "delivery", "restaurant_id": "UNWc7b0bte0LoCU2xsRGyA", "longitude": -71.1196151, "num_reviews": 312, "restaurant_name": "Simon's Coffee Shop", "latitude": 42.3842878, "is_closed": 0, "zip_code": "02138"}
{"cuisine": "Barbeque, Szechuan", "star_rating": 4.0, "transactions": "pickup, delivery", "restaurant_id": "z2A6Tf_3Z-sclKBSViYbsw", "longitude": -71.060951, "num_reviews": 28, "restaurant_name": "Friendship BBQ", "latitude": 42.351627, "is_closed": 0, "zip_code": "02111"}
{"cuisine": "Japanese, Sushi Bars", "star_rating": 4.0, "transactions": "delivery, pickup", "restaurant_id": "1JHyHC_guUaVwTi3m4Vu5g", "longitude": -71.062501, "num_reviews": 300, "restaurant_name": "Zen Japanese Grill & Sushi Bar", "latitude": 42.358124, "is_closed": 0, "zip_code": "02108"}
{"cuisine": "Parks", "star_rating": 4.0, "transactions": null, "restaurant_id": "rvDR7OgOfx4GS3JqMiW-kA", "longitude": -71.103422, "num_reviews": 5, "restaurant_name": "Perry Park", "latitude": 42.379559, "is_closed": 0, "zip_code": "02143"}
{"cuisine": "Italian, Bars, Salad", "star_rating": 4.0, "transactions": "delivery, pickup", "restaurant_id": "EYMC8NHn6U-4WpLo54dQtw", "longitude": -71.077598, "num_reviews": 392, "restaurant_name": "Anchovies", "latitude": 42.343939, "is_closed": 0, "zip_code": "02116"}
{"cuisine": "Kosher, Chinese", "star_rating": 2.5, "transactions": "delivery, pickup", "restaurant_id": "S_Evc3OfMv2QnXR8p39Fiw", "longitude": -71.12723, "num_reviews": 10, "restaurant_name": "Kosher Wok", "latitude": 42.3457099, "is_closed": 0, "zip_code": "02446"}
{"cuisine": "Coffee & Tea", "star_rating": 3.5, "transactions": "delivery", "restaurant_id": "Wf66vjRQ2_3IF22pCMDSMw", "longitude": -71.056829, "num_reviews": 24, "restaurant_name": "Starbucks", "latitude": 42.342514067132, "is_closed": 0, "zip_code": "02127"}
{"cuisine": "Cajun/Creole, Food Stands", "star_rating": 2.5, "transactions": "pickup, delivery", "restaurant_id": "gY7Xojx-Vu5DLSPYSsG4-Q", "longitude": -71.055497, "num_reviews": 36, "restaurant_name": "Cajun & Cajun", "latitude": 42.351653, "is_closed": 0, "zip_code": "02111"}
{"cuisine": "Seafood, Sandwiches", "star_rating": 4.5, "transactions": "delivery", "restaurant_id": "T5_3LoIuOnilA7Z5sdfGJA", "longitude": -71.11381, "num_reviews": 831, "restaurant_name": "Alive & Kicking Lobsters", "latitude": 42.36267, "is_closed": 0, "zip_code": "02139"}
{"cuisine": "Sports Bars, American (Traditional)", "star_rating": 2.5, "transactions": "delivery", "restaurant_id": "MjopvJwjCbOtsLvkUxUZNQ", "longitude": -71.06231418, "num_reviews": 282, "restaurant_name": "The Harp", "latitude": 42.36451753, "is_closed": 0, "zip_code": "02114"}
{"cuisine": "Bubble Tea, Coffee & Tea, Juice Bars & Smoothies", "star_rating": 4.0, "transactions": "delivery, pickup", "restaurant_id": "J6mnW1Ke2XH_X7tqCibGbw", "longitude": -71.114643, "num_reviews": 27, "restaurant_name": "Kung Fu Tea", "latitude": 42.37129, "is_closed": 0, "zip_code": "02138"}
{"cuisine": "Coffee & Tea", "star_rating": 3.0, "transactions": "delivery", "restaurant_id": "bueH6h74oLR8fkCik4C8MQ", "longitude": -71.08727975, "num_reviews": 18, "restaurant_name": "Starbucks", "latitude": 42.33901153, "is_closed": 0, "zip_code": "02115"}
{"cuisine": "Coffee & Tea", "star_rating": 4.0, "transactions": "pickup, delivery", "restaurant_id": "YMFXenoS7lSk897eXuoUjg", "longitude": -71.062498, "num_reviews": 75, "restaurant_name": "Cuppacoffee", "latitude": 42.343919, "is_closed": 0, "zip_code": "02118"}
{"cuisine": "Chinese", "star_rating": 4.0, "transactions": "delivery", "restaurant_id": "V8G-79lEeMU2Y5Krbkckxw", "longitude": -71.133674, "num_reviews": 49, "restaurant_name": "Golden House", "latitude": 42.281646, "is_closed": 0, "zip_code": "02131"}
{"cuisine": "Seafood, American (Traditional), Bars", "star_rating": 3.0, "transactions": "delivery", "restaurant_id": "r7-YSA7Z8p4KISZ-jEww5A", "longitude": -71.0556215858776, "num_reviews": 342, "restaurant_name": "Salty Dog Seafood Grille & Bar", "latitude": 42.3600640417411, "is_closed": 0, "zip_code": "02109"}
{"cuisine": "Fast Food, Burgers, Coffee & Tea", "star_rating": 2.0, "transactions": "delivery", "restaurant_id": "SULQiO2LXYqTGOVumHqr-Q", "longitude": -71.0294382973143, "num_reviews": 59, "restaurant_name": "McDonald's", "latitude": 42.2766061878761, "is_closed": 0, "zip_code": "02171"}
{"cuisine": "Local Flavor", "star_rating": 4.0, "transactions": null, "restaurant_id": "2rssvY3ZiYI0-22WjOQCRA", "longitude": -71.1171955624533, "num_reviews": 4, "restaurant_name": "Statue of John Harvard", "latitude": 42.3744846844755, "is_closed": 0, "zip_code": "02138"}
{"cuisine": "Cocktail Bars, American (Traditional)", "star_rating": 4.0, "transactions": "delivery, pickup", "restaurant_id": "MkjhW1dVbl3e0AxBL0oXKw", "longitude": -71.0586472, "num_reviews": 485, "restaurant_name": "Ward 8", "latitude": 42.3653984, "is_closed": 0, "zip_code": "02113"}
{"cuisine": "Bakeries, Desserts, Gluten-Free", "star_rating": 5.0, "transactions": null, "restaurant_id": "BdNihqUuMUJUQlT-6ROppw", "longitude": -71.0746994018555, "num_reviews": 2, "restaurant_name": "Gracie Cakes Bakery", "latitude": 42.3396186828613, "is_closed": 0, "zip_code": "02118"}
{"cuisine": "Burgers, Fast Food", "star_rating": 2.5, "transactions": null, "restaurant_id": "LrYL8pdaXUrulKrfbiwJ5w", "longitude": -71.0192491269977, "num_reviews": 4, "restaurant_name": "Burger King", "latitude": 42.3702941822181, "is_closed": 0, "zip_code": "02128"}
{"cuisine": "Thai", "star_rating": 4.0, "transactions": "pickup, delivery", "restaurant_id": "zqfbHraCjhS5ZOT70Svn1A", "longitude": -71.07809, "num_reviews": 525, "restaurant_name": "The Similans", "latitude": 42.366363, "is_closed": 0, "zip_code": "02142"}
{"cuisine": "Sandwiches, Salad, Soup", "star_rating": 2.0, "transactions": "delivery", "restaurant_id": "-MN8HvzroFTcybmg_LZvkg", "longitude": -71.06206985027028, "num_reviews": 93, "restaurant_name": "Panera Bread", "latitude": 42.32616636050322, "is_closed": 0, "zip_code": "02125"}
{"cuisine": "American (Traditional)", "star_rating": 2.5, "transactions": "pickup, delivery", "restaurant_id": "GXI8J6Xi4e1A1nMPLNtkUA", "longitude": -71.1069107, "num_reviews": 99, "restaurant_name": "Longwood Grille & Bar", "latitude": 42.3385811, "is_closed": 0, "zip_code": "02115"}
{"cuisine": "Seafood, Soup, Sandwiches", "star_rating": 4.5, "transactions": "pickup, delivery", "restaurant_id": "bdWj8_TgF8cmiWMJC6qpCw", "longitude": -71.0808132, "num_reviews": 400, "restaurant_name": "Lobstah On A Roll", "latitude": 42.3417162, "is_closed": 0, "zip_code": "02118"}
{"cuisine": "American (New), Bars, Breakfast & Brunch", "star_rating": 4.0, "transactions": "delivery, pickup", "restaurant_id": "K-b5yxnXAc4cD_4YYHJ-vg", "longitude": -71.10324, "num_reviews": 1225, "restaurant_name": "Highland Kitchen", "latitude": 42.38818, "is_closed": 0, "zip_code": "02143"}
{"cuisine": "Lounges", "star_rating": 3.5, "transactions": "delivery", "restaurant_id": "49nwNBDX7zkl5E5fB0vBYw", "longitude": -71.082354, "num_reviews": 3, "restaurant_name": "Biff's Lounge", "latitude": 42.307729, "is_closed": 0, "zip_code": "02121"}
{"cuisine": "Delis, Pasta Shops, Sandwiches", "star_rating": 4.0, "transactions": null, "restaurant_id": "Y7X3FeUfwE9pEWZxN8meVg", "longitude": -71.05421, "num_reviews": 13, "restaurant_name": "Monica\u2019s Pasta Shop", "latitude": 42.36336, "is_closed": 0, "zip_code": "02109"}
{"cuisine": "Fast Food, Mexican", "star_rating": 1.5, "transactions": "delivery", "restaurant_id": "tSe7YQcpsabdujdtZJe41Q", "longitude": -71.159958, "num_reviews": 8, "restaurant_name": "Chipotle Mexican Grill", "latitude": 42.361547, "is_closed": 0, "zip_code": "02472"}
{"cuisine": "Landmarks & Historical Buildings", "star_rating": 4.5, "transactions": null, "restaurant_id": "K7LERIN4ur6O7qRJtZePCw", "longitude": -71.1007973257366, "num_reviews": 20, "restaurant_name": "Inman Square", "latitude": 42.3737078617104, "is_closed": 0, "zip_code": "02139"}
{"cuisine": "Japanese, Sushi Bars", "star_rating": 3.5, "transactions": "pickup, delivery", "restaurant_id": "fdDtAd-BE3M35Prd2rgAsA", "longitude": -71.0667639970779, "num_reviews": 169, "restaurant_name": "Fins Sushi and Grill", "latitude": 42.3611053079367, "is_closed": 0, "zip_code": "02114"}
{"cuisine": "Italian", "star_rating": 3.5, "transactions": "delivery", "restaurant_id": "MPEmMONGmtiqeqpgBUq6CQ", "longitude": -71.166131, "num_reviews": 79, "restaurant_name": "Chef Ronsky's", "latitude": 42.323725, "is_closed": 0, "zip_code": "02467"}
{"cuisine": "Coffee & Tea", "star_rating": 3.0, "transactions": "delivery", "restaurant_id": "Q9P1Dj6EUYzIWp8pz1CcgQ", "longitude": -71.112958, "num_reviews": 39, "restaurant_name": "Starbucks", "latitude": 42.3738827223601, "is_closed": 0, "zip_code": "02138"}
{"cuisine": "Pizza", "star_rating": 4.0, "transactions": "delivery, pickup", "restaurant_id": "9O76GbJJ1mFI_j2CzIFxUQ", "longitude": -71.0714798, "num_reviews": 8, "restaurant_name": "Stefano Sub & Pizza", "latitude": 42.2815514, "is_closed": 0, "zip_code": "02124"}
{"cuisine": "Cafes, Bakeries, Breakfast & Brunch", "star_rating": 5.0, "transactions": null, "restaurant_id": "3uyvi_du7-sMxkYpcAg0-A", "longitude": -71.074687, "num_reviews": 1, "restaurant_name": "Greystone Cafe, Bakery, and Provisions", "latitude": 42.345277, "is_closed": 0, "zip_code": "02116"}
{"cuisine": "American (Traditional), Breakfast & Brunch", "star_rating": 3.5, "transactions": "pickup, delivery", "restaurant_id": "BtD_3_p1q_88zLas5CgsPA", "longitude": -71.05395, "num_reviews": 482, "restaurant_name": "McKenna's Cafe", "latitude": 42.31154, "is_closed": 0, "zip_code": "02125"}
{"cuisine": "Cafes", "star_rating": 2.0, "transactions": "delivery", "restaurant_id": "JgsZxxrb60nT02lcOkCnRg", "longitude": -71.0991446, "num_reviews": 13, "restaurant_name": "Peet's Coffee and Tea", "latitude": 42.336554, "is_closed": 0, "zip_code": "02115"}
{"cuisine": "Italian", "star_rating": 4.0, "transactions": "delivery", "restaurant_id": "CB0KEBdcItjSDMOkcv7QtA", "longitude": -71.069847310732, "num_reviews": 492, "restaurant_name": "Toscano Restaurant", "latitude": 42.357408381604, "is_closed": 0, "zip_code": "02114"}
{"cuisine": "Coffee & Tea, Breakfast & Brunch", "star_rating": 3.5, "transactions": "delivery", "restaurant_id": "Iz0pEwnByama1FwQ6mtOcQ", "longitude": -71.04465, "num_reviews": 61, "restaurant_name": "Mud House", "latitude": 42.28647, "is_closed": 0, "zip_code": "02122"}
{"cuisine": "Coffee & Tea, Waffles, Wine Bars", "star_rating": 4.5, "transactions": "delivery", "restaurant_id": "sYwiUHojCnVM7dZAhFWrmw", "longitude": -71.0836, "num_reviews": 206, "restaurant_name": "Curio Coffee and Wine", "latitude": 42.3716, "is_closed": 0, "zip_code": "02141"}
{"cuisine": "Donuts, Coffee & Tea", "star_rating": 3.0, "transactions": null, "restaurant_id": "ix4GZehsA6E6euNosbPkvA", "longitude": -71.0587032884359, "num_reviews": 16, "restaurant_name": "Dunkin'", "latitude": 42.362787052989, "is_closed": 0, "zip_code": "02114"}
{"cuisine": "Coffee & Tea", "star_rating": 3.0, "transactions": "delivery", "restaurant_id": "JTr4WuCjSO5KsEG88EtrPA", "longitude": -71.087644, "num_reviews": 30, "restaurant_name": "Starbucks", "latitude": 42.346688, "is_closed": 0, "zip_code": "02115"}
{"cuisine": "Sandwiches, Breakfast & Brunch", "star_rating": 4.5, "transactions": "pickup, delivery", "restaurant_id": "EbUZhM4fLpsWQ8fpBhhgEQ", "longitude": -71.067928, "num_reviews": 1741, "restaurant_name": "Mike & Patty's", "latitude": 42.348561, "is_closed": 0, "zip_code": "02116"}
{"cuisine": "Seafood, Salad, Breakfast & Brunch", "star_rating": 5.0, "transactions": "delivery, pickup", "restaurant_id": "cCyqbq2HHLiGmNJ42fQpdw", "longitude": -71.10868, "num_reviews": 2, "restaurant_name": "Plan It Eats", "latitude": 42.34611, "is_closed": 0, "zip_code": "02446"}
{"cuisine": "Sandwiches, Breakfast & Brunch, Burgers", "star_rating": 4.0, "transactions": "delivery", "restaurant_id": "w-i1JcbJDuJmoZbGjxBH8w", "longitude": -71.0777405, "num_reviews": 306, "restaurant_name": "Charlie's Sandwich Shoppe", "latitude": 42.3441143, "is_closed": 0, "zip_code": "02116"}
{"cuisine": "Chinese", "star_rating": 3.0, "transactions": "delivery, pickup", "restaurant_id": "n8ZXK2CkTCwz0pqkuP6dbw", "longitude": -71.0825196, "num_reviews": 17, "restaurant_name": "Peking House", "latitude": 42.3287128, "is_closed": 0, "zip_code": "02119"}
{"cuisine": "Caribbean, Breakfast & Brunch", "star_rating": 3.5, "transactions": "delivery, pickup", "restaurant_id": "6bAZg2Ao39kloSyV-kRHJg", "longitude": -71.0789, "num_reviews": 26, "restaurant_name": "Island Style", "latitude": 42.30328, "is_closed": 0, "zip_code": "02121"}
{"cuisine": "Landmarks & Historical Buildings", "star_rating": 4.0, "transactions": null, "restaurant_id": "ZINmMnfajSx_MzRwE7uHxg", "longitude": -71.0549715, "num_reviews": 1, "restaurant_name": "Samuel Adams Statue", "latitude": 42.3609728, "is_closed": 0, "zip_code": "02109"}
{"cuisine": "American (New), Breakfast & Brunch", "star_rating": 3.5, "transactions": "delivery", "restaurant_id": "1iY5q6spBS_DNWyemY829A", "longitude": -71.123303919788, "num_reviews": 784, "restaurant_name": "Henrietta's Table", "latitude": 42.3722372983189, "is_closed": 0, "zip_code": "02138"}
{"cuisine": "Bars, Tapas/Small Plates, Mexican", "star_rating": 5.0, "transactions": "delivery, pickup", "restaurant_id": "1PETTG5wOUtagED0o1M5tg", "longitude": -71.09723, "num_reviews": 7, "restaurant_name": "BARRA", "latitude": 42.38143, "is_closed": 0, "zip_code": "02143"}
{"cuisine": "Sushi Bars", "star_rating": 2.5, "transactions": "delivery", "restaurant_id": "b2NFzGVrWnYUyd4uEU2kYQ", "longitude": -71.076434, "num_reviews": 30, "restaurant_name": "Sarku Japan Sushi Bar", "latitude": 42.368578, "is_closed": 0, "zip_code": "02141"}
{"cuisine": "Convenience Stores, Gas Stations, Coffee & Tea", "star_rating": 3.5, "transactions": null, "restaurant_id": "6MyfIwv17-S3k-2PpVcLTA", "longitude": -71.15387, "num_reviews": 7, "restaurant_name": "Cumberland Farms", "latitude": 42.34223, "is_closed": 0, "zip_code": "02135"}
{"cuisine": "Museums", "star_rating": 4.0, "transactions": null, "restaurant_id": "atA0yKTxJIUfQVRcWCrmFg", "longitude": -71.0741199, "num_reviews": 14, "restaurant_name": "Gibson House Museum", "latitude": 42.35473, "is_closed": 0, "zip_code": "02116"}
{"cuisine": "Coffee & Tea", "star_rating": 3.0, "transactions": "delivery", "restaurant_id": "tN5eEVeorffdWgzo_f6dqw", "longitude": -71.054299, "num_reviews": 12, "restaurant_name": "Starbucks", "latitude": 42.358178, "is_closed": 0, "zip_code": "02109"}
{"cuisine": "Food Stands, Hot Dogs", "star_rating": 4.0, "transactions": null, "restaurant_id": "EZDO-GnLqdwIhfQUMHvujw", "longitude": -71.060278, "num_reviews": 1, "restaurant_name": "Italian Sausage Hot Dogs - Cart Vendor", "latitude": 42.358333, "is_closed": 0, "zip_code": "02228"}
{"cuisine": "Delis, Pizza", "star_rating": 3.5, "transactions": "delivery, pickup", "restaurant_id": "CmG7H7BTZ_G_nv-DwyEbnw", "longitude": -71.1742928, "num_reviews": 39, "restaurant_name": "Riverside Pizza and Subs", "latitude": 42.2704038, "is_closed": 0, "zip_code": "02026"}
{"cuisine": "Tiki Bars, Barbeque, Chicken Wings", "star_rating": 4.0, "transactions": "pickup, delivery", "restaurant_id": "0qmGd3I6dFkJ3auDgRZl4Q", "longitude": -71.0985896264698, "num_reviews": 136, "restaurant_name": "Highland Fried", "latitude": 42.3735754582434, "is_closed": 0, "zip_code": "02139"}
{"cuisine": "Brazilian, Bars", "star_rating": 3.0, "transactions": "pickup, delivery", "restaurant_id": "bIrQmUeBtfTdRT4S9Y3mkQ", "longitude": -71.0386, "num_reviews": 8, "restaurant_name": "La Gran Manzana", "latitude": 42.37518, "is_closed": 0, "zip_code": "02128"}
{"cuisine": "Mexican, Breakfast & Brunch", "star_rating": 4.0, "transactions": "delivery", "restaurant_id": "gjWtb3F23YxfYvRHWbvWWA", "longitude": -71.00631, "num_reviews": 100, "restaurant_name": "Angela's Cafe - Orient Heights", "latitude": 42.3870999, "is_closed": 0, "zip_code": "02128"}
{"cuisine": "Seafood, Mediterranean, Cocktail Bars", "star_rating": 3.5, "transactions": null, "restaurant_id": "gkCSVmq6Mx8Z04KzkrHzCA", "longitude": -71.0799231, "num_reviews": 245, "restaurant_name": "Porto", "latitude": 42.3474013, "is_closed": 0, "zip_code": "02199"}
{"cuisine": "Bakeries", "star_rating": 5.0, "transactions": null, "restaurant_id": "UQaVD-eEULp01FDtkI6h2A", "longitude": -71.1922302246094, "num_reviews": 1, "restaurant_name": "Creative Confections", "latitude": 42.3144989013672, "is_closed": 0, "zip_code": "02459"}
{"cuisine": "Cafes", "star_rating": 4.0, "transactions": null, "restaurant_id": "Er1Ln78VXFVfS3aD4TCB_w", "longitude": -71.087723, "num_reviews": 1, "restaurant_name": "Forbes Cafe", "latitude": 42.3591755, "is_closed": 0, "zip_code": "02142"}
{"cuisine": "Dominican", "star_rating": 4.0, "transactions": "delivery", "restaurant_id": "KXm5LP0rkLsCnL4J93XXlQ", "longitude": -71.0776250932546, "num_reviews": 2, "restaurant_name": "El Fogon Restaurant", "latitude": 42.3189493340164, "is_closed": 0, "zip_code": "02125"}
{"cuisine": "American (New), Italian, Beer Bar", "star_rating": 5.0, "transactions": null, "restaurant_id": "exv7sUIpNXQVp4Cajstyhw", "longitude": -71.0541, "num_reviews": 1, "restaurant_name": "Lily's Garden & Patio", "latitude": 42.357407, "is_closed": 0, "zip_code": "02110"}
{"cuisine": "Bagels, Breakfast & Brunch, Sandwiches", "star_rating": 3.0, "transactions": "delivery", "restaurant_id": "E_GYRVbu5c6K5uoWXs_unw", "longitude": -71.120785, "num_reviews": 81, "restaurant_name": "Bruegger's Bagels", "latitude": 42.34132, "is_closed": 0, "zip_code": "02446"}
{"cuisine": "Desserts, Bubble Tea, Juice Bars & Smoothies", "star_rating": 4.5, "transactions": "delivery, pickup", "restaurant_id": "sy7KRTjHIOqwIhb9xAjQIA", "longitude": -71.123861, "num_reviews": 11, "restaurant_name": "Royaltea - Brookline", "latitude": 42.341763, "is_closed": 0, "zip_code": "02446"}
{"cuisine": "Mediterranean", "star_rating": 3.5, "transactions": "pickup, delivery", "restaurant_id": "PytPLzucy-I5qNsv-JmSVg", "longitude": -71.053, "num_reviews": 43, "restaurant_name": "Mediterranean Grill", "latitude": 42.35698, "is_closed": 0, "zip_code": "02110"}
{"cuisine": "Pizza, American (New), Salad", "star_rating": 3.0, "transactions": "delivery, pickup", "restaurant_id": "hY0fYfMP77gf_gFJLq89eA", "longitude": -71.080086, "num_reviews": 225, "restaurant_name": "California Pizza Kitchen at Prudential", "latitude": 42.34731, "is_closed": 0, "zip_code": "02199"}
{"cuisine": "Caribbean, Venezuelan", "star_rating": 4.0, "transactions": "pickup, delivery", "restaurant_id": "j1WPxYKT3Qyt1PohcQfNtg", "longitude": -71.1190102987469, "num_reviews": 461, "restaurant_name": "Orinoco", "latitude": 42.3338191846724, "is_closed": 0, "zip_code": "02445"}
{"cuisine": "Sandwiches, Caterers, Seafood", "star_rating": 4.5, "transactions": "pickup, delivery", "restaurant_id": "HEaQQAH6qyFXamKkpil91A", "longitude": -71.0560854227807, "num_reviews": 1136, "restaurant_name": "Pauli's", "latitude": 42.363244212396, "is_closed": 0, "zip_code": "02113"}
{"cuisine": "Convenience Stores, Coffee & Tea", "star_rating": 1.5, "transactions": null, "restaurant_id": "IRZlHr5RqIXpCZJZiAX3_w", "longitude": -71.0800704, "num_reviews": 3, "restaurant_name": "7-Eleven", "latitude": 42.349646, "is_closed": 0, "zip_code": "02116"}
{"cuisine": "Sushi Bars, Noodles", "star_rating": 3.5, "transactions": "pickup, delivery", "restaurant_id": "wecemR8v-VTGFF9m5ddrdQ", "longitude": -71.1071813, "num_reviews": 21, "restaurant_name": "T Sushi Wraps & Noodles", "latitude": 42.3388398, "is_closed": 0, "zip_code": "02115"}
{"cuisine": "Tacos", "star_rating": 4.5, "transactions": "delivery, pickup", "restaurant_id": "S81a8NFWZfiiqxYEvUYdQQ", "longitude": -71.03894, "num_reviews": 3, "restaurant_name": "Tacomania", "latitude": 42.3759, "is_closed": 0, "zip_code": "02128"}
{"cuisine": "Spanish", "star_rating": 4.0, "transactions": null, "restaurant_id": "p3c3ABrpeXLEYW4-KhMGEA", "longitude": -71.0708486, "num_reviews": 2, "restaurant_name": "Tropical Island", "latitude": 42.303907, "is_closed": 0, "zip_code": "02124"}
{"cuisine": "American (New), Bars", "star_rating": 4.5, "transactions": "delivery", "restaurant_id": "P9AJqEYOT--zGRfK7QQlmQ", "longitude": -71.06238, "num_reviews": 63, "restaurant_name": "The Emory", "latitude": 42.35821, "is_closed": 0, "zip_code": "02108"}
{"cuisine": "Playgrounds, Parks", "star_rating": 4.5, "transactions": null, "restaurant_id": "pqU2Igim1NGQYWvJS31tTw", "longitude": -71.108139, "num_reviews": 6, "restaurant_name": "Dana Park", "latitude": 42.361328, "is_closed": 0, "zip_code": "02139"}
{"cuisine": "Italian, Mediterranean, Pasta Shops", "star_rating": 4.0, "transactions": null, "restaurant_id": "Mgkv-Kr_tcANDPYnV4PqQw", "longitude": -71.0553512573242, "num_reviews": 273, "restaurant_name": "Ristorante Euno", "latitude": 42.3644332885742, "is_closed": 0, "zip_code": "02113"}
{"cuisine": "Korean, Asian Fusion, Mexican", "star_rating": 4.5, "transactions": "delivery", "restaurant_id": "XW3NB-c3pA0vsmsXAn2rkw", "longitude": -71.1329534, "num_reviews": 468, "restaurant_name": "Coreanos Allston", "latitude": 42.3529551, "is_closed": 0, "zip_code": "02134"}
{"cuisine": "Breweries, Bars, Tours", "star_rating": 4.0, "transactions": null, "restaurant_id": "w_MxXl29Pnpc94EU6S39cg", "longitude": -71.1063153123726, "num_reviews": 284, "restaurant_name": "Aeronaut Brewing Company", "latitude": 42.3819711200372, "is_closed": 0, "zip_code": "02143"}
{"cuisine": "Tiki Bars, Cocktail Bars", "star_rating": 3.5, "transactions": null, "restaurant_id": "fY2abIK1h4s6sUbgWu4bPQ", "longitude": -71.0638210957865, "num_reviews": 119, "restaurant_name": "Shore Leave", "latitude": 42.3455617093292, "is_closed": 0, "zip_code": "02118"}
{"cuisine": "Chinese, Vegetarian", "star_rating": 4.0, "transactions": "delivery, pickup", "restaurant_id": "_VkLbBvqBMmDJ9EUOZ4zUg", "longitude": -71.13746, "num_reviews": 580, "restaurant_name": "Grasshopper Restaurant", "latitude": 42.35378, "is_closed": 0, "zip_code": "02134"}
{"cuisine": "Cafes, Bakeries, Breakfast & Brunch", "star_rating": 4.0, "transactions": null, "restaurant_id": "ji_ZCdR1hCXtN_8pA1eIEQ", "longitude": -71.06491, "num_reviews": 3, "restaurant_name": "Tatte Bakery & Cafe", "latitude": 42.35223, "is_closed": 0, "zip_code": "02116"}
{"cuisine": "Seafood, American (New)", "star_rating": 3.0, "transactions": "delivery", "restaurant_id": "tTzVRy24H-GFERKOl4OlJA", "longitude": -71.105386, "num_reviews": 80, "restaurant_name": "Zephyr On the Charles", "latitude": 42.354247, "is_closed": 0, "zip_code": "02139"}
{"cuisine": "Seafood, Chinese", "star_rating": 4.0, "transactions": "delivery, pickup", "restaurant_id": "SJy51U18u3zJ_TccSKpPdQ", "longitude": -71.06097, "num_reviews": 217, "restaurant_name": "Gaga Seafood Restaurant", "latitude": 42.35071, "is_closed": 0, "zip_code": "02111"}
{"cuisine": "Salad, Breakfast & Brunch, Sandwiches", "star_rating": 4.0, "transactions": null, "restaurant_id": "lhsSex-lUya1F8TitknFtg", "longitude": -71.083515, "num_reviews": 92, "restaurant_name": "Shy Bird", "latitude": 42.362757, "is_closed": 0, "zip_code": "02142"}
{"cuisine": "Italian", "star_rating": 5.0, "transactions": "delivery", "restaurant_id": "YcJ0qKCafmokC7Z2x8-50w", "longitude": -71.038811, "num_reviews": 5, "restaurant_name": "The Pasta Box", "latitude": 42.390285, "is_closed": 0, "zip_code": "02150"}
{"cuisine": "Coffee & Tea, Sandwiches", "star_rating": 2.5, "transactions": null, "restaurant_id": "X3NWJlQLB-X1xlfkYaE9tw", "longitude": -71.099533, "num_reviews": 6, "restaurant_name": "Breadwinners", "latitude": 42.349582, "is_closed": 0, "zip_code": "02215"}
{"cuisine": "Caribbean", "star_rating": 2.5, "transactions": "delivery", "restaurant_id": "L-OeUnd_coHP8X5Jdi24ng", "longitude": -71.08331, "num_reviews": 57, "restaurant_name": "Flames III", "latitude": 42.30905, "is_closed": 0, "zip_code": "02121"}
{"cuisine": "Italian, Pizza", "star_rating": 4.0, "transactions": "pickup, delivery", "restaurant_id": "t5s5f9nszAannzjQAp9yfg", "longitude": -71.0511880226845, "num_reviews": 197, "restaurant_name": "Alfredo's Italian Kitchen - South Boston", "latitude": 42.3328541890964, "is_closed": 0, "zip_code": "02127"}
{"cuisine": "Convenience Stores, Breakfast & Brunch, Sandwiches", "star_rating": 2.0, "transactions": null, "restaurant_id": "bt7mGKbchQ4-BdAWMZOGdg", "longitude": -71.08126, "num_reviews": 1, "restaurant_name": "One Memorial Drive - Cafe", "latitude": 42.36136, "is_closed": 0, "zip_code": "02142"}
{"cuisine": "Burgers, Ice Cream & Frozen Yogurt, Sandwiches", "star_rating": 3.5, "transactions": "delivery, pickup", "restaurant_id": "BE2X116vue5LKZ_1oU7Cmw", "longitude": -71.04872, "num_reviews": 3, "restaurant_name": "Molly Moo's", "latitude": 42.32401, "is_closed": 0, "zip_code": "02125"}
{"cuisine": "Coffee & Tea, Donuts", "star_rating": 2.5, "transactions": "delivery", "restaurant_id": "8DwDpMO5AFm4gB9sQgLPBg", "longitude": -71.09411, "num_reviews": 18, "restaurant_name": "Dunkin'", "latitude": 42.36634, "is_closed": 0, "zip_code": "02142"}
{"cuisine": "Latin American, Fast Food, Chicken Shop", "star_rating": 3.5, "transactions": "delivery, pickup", "restaurant_id": "YgeNJMJenE2xZZ49PyYfeA", "longitude": -71.04063342, "num_reviews": 52, "restaurant_name": "Pollo Campero", "latitude": 42.37487341, "is_closed": 0, "zip_code": "02128"}
{"cuisine": "Parks", "star_rating": 4.0, "transactions": null, "restaurant_id": "4DmP5q2B99duLiz__jJCgQ", "longitude": -71.060278, "num_reviews": 56, "restaurant_name": "Georges Island", "latitude": 42.358333, "is_closed": 0, "zip_code": "02228"}
{"cuisine": "Pizza", "star_rating": 3.5, "transactions": "pickup, delivery", "restaurant_id": "pq0jNBzPeNMhWRXPWj9U1Q", "longitude": -71.096855, "num_reviews": 31, "restaurant_name": "Primo Pizza & Roast Beef", "latitude": 42.363441, "is_closed": 0, "zip_code": "02139"}
{"cuisine": "Parks", "star_rating": 4.0, "transactions": null, "restaurant_id": "a7CnB7xbqloNjHTQ6tZW0w", "longitude": -71.0853713479156, "num_reviews": 1, "restaurant_name": "Shields Park", "latitude": 42.2661077616346, "is_closed": 0, "zip_code": "02186"}
{"cuisine": "Coffee & Tea, Donuts", "star_rating": 3.0, "transactions": "delivery", "restaurant_id": "el7ftWQm_t58f8RdEZZQ2Q", "longitude": -71.11204, "num_reviews": 2, "restaurant_name": "Dunkin'", "latitude": 42.33116, "is_closed": 0, "zip_code": "02130"}
{"cuisine": "Music Venues, Burgers", "star_rating": 4.0, "transactions": "delivery", "restaurant_id": "hADEjYNxdlSrU8paiRUzUg", "longitude": -71.1192016601562, "num_reviews": 102, "restaurant_name": "Lizard Lounge", "latitude": 42.3820838928223, "is_closed": 0, "zip_code": "02138"}
{"cuisine": "Salad, Vegetarian", "star_rating": 3.5, "transactions": "pickup, delivery", "restaurant_id": "rBQaL3UgrV7--t0BG44NlQ", "longitude": -71.0633541, "num_reviews": 64, "restaurant_name": "sweetgreen", "latitude": 42.3452624, "is_closed": 0, "zip_code": "02118"}
{"cuisine": "Burgers, Fast Food, Hot Dogs", "star_rating": 2.0, "transactions": "delivery", "restaurant_id": "_tDureGgU3Zr9rq2MId3aw", "longitude": -71.0586553439498, "num_reviews": 29, "restaurant_name": "Shake Shack", "latitude": 42.3568351627981, "is_closed": 0, "zip_code": "02108"}
{"cuisine": "Bakeries", "star_rating": 4.0, "transactions": null, "restaurant_id": "O0dujTET71iNknXA9Kbwfw", "longitude": -71.1305341, "num_reviews": 204, "restaurant_name": "Yi Soon Bakery", "latitude": 42.3526922, "is_closed": 0, "zip_code": "02134"}
{"cuisine": "Bakeries, Cafes, Breakfast & Brunch", "star_rating": 4.0, "transactions": "delivery", "restaurant_id": "O38NUkw0yQZxtwjgS-acgQ", "longitude": -71.1070339, "num_reviews": 526, "restaurant_name": "Tatte Bakery & Cafe", "latitude": 42.3457847, "is_closed": 0, "zip_code": "02446"}
{"cuisine": "American (New)", "star_rating": 1.5, "transactions": null, "restaurant_id": "BQ4DOwaofXXh6dBU1MRdQA", "longitude": -71.0605698, "num_reviews": 3, "restaurant_name": "Gourmet To Go", "latitude": 42.3606415, "is_closed": 0, "zip_code": "02108"}
{"cuisine": "Indian", "star_rating": 1.0, "transactions": "pickup, delivery", "restaurant_id": "HYyuIzE_yKiqjdNf3TN-SA", "longitude": -71.0725021, "num_reviews": 1, "restaurant_name": "Kashmir Spice", "latitude": 42.3433342, "is_closed": 0, "zip_code": "02118"}
{"cuisine": "Pizza, Breakfast & Brunch, Gastropubs", "star_rating": 5.0, "transactions": null, "restaurant_id": "hn_4mJU5vnm1zDzc3mn6iQ", "longitude": -71.1200405, "num_reviews": 1, "restaurant_name": "SOURCE Restaurant", "latitude": 42.3745368, "is_closed": 0, "zip_code": "02138"}
{"cuisine": "Music Venues, American (Traditional), Community Service/Non-Profit", "star_rating": 4.5, "transactions": "delivery", "restaurant_id": "8ju300tn3uzUvIPIvmkRWA", "longitude": -71.1200116, "num_reviews": 112, "restaurant_name": "Club Passim", "latitude": 42.3738387, "is_closed": 0, "zip_code": "02138"}
{"cuisine": "Pizza, Salad, Sandwiches", "star_rating": 3.0, "transactions": "pickup, delivery", "restaurant_id": "sZiUCvGIfkmeucb_JwaZvQ", "longitude": -71.131098211371, "num_reviews": 189, "restaurant_name": "Inbound Pizza & Restaurant", "latitude": 42.34988004831, "is_closed": 0, "zip_code": "02134"}
{"cuisine": "Bakeries, Cupcakes, Patisserie/Cake Shop", "star_rating": 4.0, "transactions": "pickup, delivery", "restaurant_id": "HvOmnemslTpP0_SwHwTucQ", "longitude": -71.11899, "num_reviews": 367, "restaurant_name": "Mike's Pastry", "latitude": 42.37299, "is_closed": 0, "zip_code": "02138"}
{"cuisine": "Tex-Mex, Venues & Event Spaces, Cocktail Bars", "star_rating": 3.0, "transactions": "pickup, delivery", "restaurant_id": "sXLcNEfvFvIe1-HPAhRh8w", "longitude": -71.062376, "num_reviews": 689, "restaurant_name": "Fajitas & 'Ritas", "latitude": 42.354779, "is_closed": 0, "zip_code": "02111"}
{"cuisine": "Cocktail Bars", "star_rating": 4.5, "transactions": "delivery", "restaurant_id": "HcLJDCEqExpfC2pdzOTAsA", "longitude": -71.0953666879285, "num_reviews": 314, "restaurant_name": "The Hawthorne", "latitude": 42.3486925877382, "is_closed": 0, "zip_code": "02215"}
{"cuisine": "Pizza, Sandwiches, Chicken Wings", "star_rating": 2.0, "transactions": null, "restaurant_id": "Hw7SrFPCJc3qAux-2wOCEg", "longitude": -71.1356799, "num_reviews": 62, "restaurant_name": "Domino's Pizza", "latitude": 42.35404, "is_closed": 0, "zip_code": "02134"}
{"cuisine": "Sports Bars", "star_rating": 4.0, "transactions": null, "restaurant_id": "QjvsNTLLpHQnJp96jaK-aA", "longitude": -71.0983163, "num_reviews": 3, "restaurant_name": "Absolut Clubhouse", "latitude": 42.3471868, "is_closed": 0, "zip_code": "02215"}
{"cuisine": "Cocktail Bars", "star_rating": 4.5, "transactions": "delivery", "restaurant_id": "V6IKFLo-rJdMRJEbuLLD3g", "longitude": -71.0945945978165, "num_reviews": 382, "restaurant_name": "backbar", "latitude": 42.3797392845154, "is_closed": 0, "zip_code": "02143"}
{"cuisine": "Coffee & Tea", "star_rating": 3.5, "transactions": "delivery", "restaurant_id": "cSEXwTUumJ8b1LB9KZ13Nw", "longitude": -71.076313, "num_reviews": 33, "restaurant_name": "Starbucks", "latitude": 42.348465, "is_closed": 0, "zip_code": "02116"}
{"cuisine": "Caterers, Delis, Cafes", "star_rating": 3.5, "transactions": "delivery, pickup", "restaurant_id": "kWxDrzW6MfyQYc8Ob9XXCg", "longitude": -71.0541381, "num_reviews": 113, "restaurant_name": "Max's Deli Cafe", "latitude": 42.357674, "is_closed": 0, "zip_code": "02109"}
{"cuisine": "Greek, Specialty Food, International Grocery", "star_rating": 5.0, "transactions": "delivery, pickup", "restaurant_id": "Xt7bUBMmir6NqkglfxPInw", "longitude": -71.157111, "num_reviews": 86, "restaurant_name": "Greek International Food Market", "latitude": 42.260744, "is_closed": 0, "zip_code": "02132"}
{"cuisine": "Pizza, Chicken Wings, Sandwiches", "star_rating": 2.0, "transactions": null, "restaurant_id": "B_YfOumufXhz6DApdjhuvA", "longitude": -71.03665, "num_reviews": 48, "restaurant_name": "Domino's Pizza", "latitude": 42.28191, "is_closed": 0, "zip_code": "02171"}
{"cuisine": "Middle Eastern, Persian/Iranian", "star_rating": 3.5, "transactions": "delivery, pickup", "restaurant_id": "Vco3twYE0sD4kb0O1_PLoQ", "longitude": -71.157173, "num_reviews": 162, "restaurant_name": "Shiraz Persian Cuisine", "latitude": 42.368427, "is_closed": 0, "zip_code": "02472"}
{"cuisine": "Chicken Shop", "star_rating": 2.5, "transactions": null, "restaurant_id": "Lvg9n436W10vcuwDfSvAmg", "longitude": -71.1027837437621, "num_reviews": 15, "restaurant_name": "Ms Clucks Deluxe", "latitude": 42.344345468326, "is_closed": 0, "zip_code": "02215"}
{"cuisine": "Japanese, Tacos", "star_rating": 4.5, "transactions": null, "restaurant_id": "TlYGhaKsjhT4Cq-gRlnVUg", "longitude": -71.102623, "num_reviews": 7, "restaurant_name": "Gogo ya", "latitude": 42.344891, "is_closed": 0, "zip_code": "02215"}
{"cuisine": "Sandwiches, Steakhouses, Cheesesteaks", "star_rating": 2.5, "transactions": "pickup, delivery", "restaurant_id": "lJg03aloSXRk-Ue0MeT6og", "longitude": -71.0557079315186, "num_reviews": 29, "restaurant_name": "Philadelphia Steak & Hoagie", "latitude": 42.3594635586149, "is_closed": 0, "zip_code": "02109"}
{"cuisine": "Vietnamese", "star_rating": 4.5, "transactions": "pickup, delivery", "restaurant_id": "yrkUofMv7pVLTK-sGJ7z7A", "longitude": -71.150637, "num_reviews": 22, "restaurant_name": "Banh Mi Oi", "latitude": 42.287524, "is_closed": 0, "zip_code": "02132"}
{"cuisine": "Food Trucks, Salad, Sandwiches", "star_rating": 5.0, "transactions": null, "restaurant_id": "OkB4eTW7dXyazwrmvmJNVw", "longitude": -71.26625, "num_reviews": 4, "restaurant_name": "Souped Up Food", "latitude": 42.55582, "is_closed": 0, "zip_code": "01821"}
{"cuisine": "Italian, Wine Bars, Seafood", "star_rating": 4.0, "transactions": "pickup, delivery", "restaurant_id": "2u_w3rthRzR2uEihW5BC4A", "longitude": -71.05344, "num_reviews": 3497, "restaurant_name": "Giacomo's Ristorante - Boston", "latitude": 42.36458, "is_closed": 0, "zip_code": "02113"}
{"cuisine": "Donuts, Coffee & Tea", "star_rating": 3.5, "transactions": "delivery", "restaurant_id": "z5YKrR6zGAJ4ozepWRKdnw", "longitude": -71.11127, "num_reviews": 13, "restaurant_name": "Dunkin'", "latitude": 42.3696399, "is_closed": 0, "zip_code": "02138"}
{"cuisine": "Diners", "star_rating": 4.0, "transactions": "pickup, delivery", "restaurant_id": "NavcwCHgBmBjoKCXHt8JDg", "longitude": -71.07604, "num_reviews": 613, "restaurant_name": "Mike's City Diner", "latitude": 42.33688, "is_closed": 0, "zip_code": "02118"}
{"cuisine": "American (New), Bars", "star_rating": 3.5, "transactions": "delivery", "restaurant_id": "-p3SYaAiLKFc914fKyEPTA", "longitude": -71.149664475126, "num_reviews": 309, "restaurant_name": "West On Centre", "latitude": 42.287136434029, "is_closed": 0, "zip_code": "02132"}
{"cuisine": "Bars, Jazz & Blues, Breakfast & Brunch", "star_rating": 3.5, "transactions": "delivery, pickup", "restaurant_id": "QULve82crMjaNkgfqfjl2Q", "longitude": -71.08241, "num_reviews": 680, "restaurant_name": "Darryl's Corner Bar & Kitchen", "latitude": 42.33976, "is_closed": 0, "zip_code": "02118"}
{"cuisine": "American (New), Cafes, Sandwiches", "star_rating": 4.5, "transactions": null, "restaurant_id": "3jEkzbx62A6GvfRduOM83A", "longitude": -71.076358, "num_reviews": 7, "restaurant_name": "Clover Food Lab", "latitude": 42.350679, "is_closed": 0, "zip_code": "02116"}
{"cuisine": "Donuts, Coffee & Tea", "star_rating": 3.0, "transactions": "delivery", "restaurant_id": "a94jXbjB7RimzOiPk_MkTQ", "longitude": -71.066112, "num_reviews": 18, "restaurant_name": "Dunkin'", "latitude": 42.351354, "is_closed": 0, "zip_code": "02116"}
{"cuisine": "Burgers, Bubble Tea, Desserts", "star_rating": 4.5, "transactions": "delivery, pickup", "restaurant_id": "-gbgBe9mxp7uFIUjrc1yxQ", "longitude": -71.13041, "num_reviews": 119, "restaurant_name": "Moon Flower House", "latitude": 42.35257, "is_closed": 0, "zip_code": "02134"}
{"cuisine": "Cafeteria", "star_rating": 4.5, "transactions": null, "restaurant_id": "Lwys_i_3iIPlUCHJr-NQJw", "longitude": -71.10708, "num_reviews": 12, "restaurant_name": "Dana Farber Cancer Institute Cafeteria", "latitude": 42.33757, "is_closed": 0, "zip_code": "02115"}
{"cuisine": "Bakeries, Desserts, Gelato", "star_rating": 4.0, "transactions": "delivery, pickup", "restaurant_id": "PrsvO1rzkgg6qFizlAoEtg", "longitude": -71.0542184385064, "num_reviews": 7281, "restaurant_name": "Mike's Pastry", "latitude": 42.3641813865072, "is_closed": 0, "zip_code": "02113"}
